{
"type": "FeatureCollection",
"name": "历史文化名城名镇名村",
"crs": { "type": "name", "properties": { "name": "urn:ogc:def:crs:OGC:1.3:CRS84" } },
"features": [
{ "type": "Feature", "properties": { "NAME": "北京", "PC": "第一批", "LX": "历史文化名城", "ProName": "北京", "CityName": "北京市", "CountyName": " ", "TownName": " ", "VillageNam": " " }, "geometry": { "type": "Point", "coordinates": [ 116.406996599711604, 39.904587207598908 ] } },
{ "type": "Feature", "properties": { "NAME": "承德", "PC": "第一批", "LX": "历史文化名城", "ProName": "河北", "CityName": "承德市", "CountyName": " ", "TownName": " ", "VillageNam": " " }, "geometry": { "type": "Point", "coordinates": [ 117.962978886995558, 40.951499996975016 ] } },
{ "type": "Feature", "properties": { "NAME": "大同", "PC": "第一批", "LX": "历史文化名城", "ProName": "陕西", "CityName": "大同市", "CountyName": " ", "TownName": " ", "VillageNam": " " }, "geometry": { "type": "Point", "coordinates": [ 113.299943478733525, 40.076402975724136 ] } },
{ "type": "Feature", "properties": { "NAME": "南京", "PC": "第一批", "LX": "历史文化名城", "ProName": "江苏", "CityName": "南京市", "CountyName": " ", "TownName": " ", "VillageNam": " " }, "geometry": { "type": "Point", "coordinates": [ 118.795993170948435, 32.058294896660307 ] } },
{ "type": "Feature", "properties": { "NAME": "苏州", "PC": "第一批", "LX": "历史文化名城", "ProName": "江苏", "CityName": "苏州市", "CountyName": " ", "TownName": " ", "VillageNam": " " }, "geometry": { "type": "Point", "coordinates": [ 120.585985912548637, 31.297316855461403 ] } },
{ "type": "Feature", "properties": { "NAME": "扬州", "PC": "第一批", "LX": "历史文化名城", "ProName": "江苏", "CityName": "扬州市", "CountyName": " ", "TownName": " ", "VillageNam": " " }, "geometry": { "type": "Point", "coordinates": [ 119.412987870075966, 32.394423622833528 ] } },
{ "type": "Feature", "properties": { "NAME": "杭州", "PC": "第一批", "LX": "历史文化名城", "ProName": "浙江", "CityName": "杭州市", "CountyName": " ", "TownName": " ", "VillageNam": " " }, "geometry": { "type": "Point", "coordinates": [ 120.209032015378412, 30.246996334747344 ] } },
{ "type": "Feature", "properties": { "NAME": "绍兴", "PC": "第一批", "LX": "历史文化名城", "ProName": "浙江", "CityName": "绍兴市", "CountyName": " ", "TownName": " ", "VillageNam": " " }, "geometry": { "type": "Point", "coordinates": [ 120.579020769101078, 30.030120304028451 ] } },
{ "type": "Feature", "properties": { "NAME": "泉州", "PC": "第一批", "LX": "历史文化名城", "ProName": "福建", "CityName": "泉州市", "CountyName": " ", "TownName": " ", "VillageNam": " " }, "geometry": { "type": "Point", "coordinates": [ 118.675995291874514, 24.873602240059103 ] } },
{ "type": "Feature", "properties": { "NAME": "景德镇", "PC": "第一批", "LX": "历史文化名城", "ProName": "江西", "CityName": "景德镇市", "CountyName": " ", "TownName": " ", "VillageNam": " " }, "geometry": { "type": "Point", "coordinates": [ 117.177991056209862, 29.268581473117393 ] } },
{ "type": "Feature", "properties": { "NAME": "曲阜", "PC": "第一批", "LX": "历史文化名城", "ProName": "山东", "CityName": "曲阜市", "CountyName": " ", "TownName": " ", "VillageNam": " " }, "geometry": { "type": "Point", "coordinates": [ 116.986992346479298, 35.581115480189226 ] } },
{ "type": "Feature", "properties": { "NAME": "洛阳", "PC": "第一批", "LX": "历史文化名城", "ProName": "河南", "CityName": "洛阳市", "CountyName": " ", "TownName": " ", "VillageNam": " " }, "geometry": { "type": "Point", "coordinates": [ 112.452985368655277, 34.618046080395843 ] } },
{ "type": "Feature", "properties": { "NAME": "开封", "PC": "第一批", "LX": "历史文化名城", "ProName": "河南", "CityName": "开封市", "CountyName": " ", "TownName": " ", "VillageNam": " " }, "geometry": { "type": "Point", "coordinates": [ 114.30799368419747, 34.797207595674919 ] } },
{ "type": "Feature", "properties": { "NAME": "荆州", "PC": "第一批", "LX": "历史文化名城", "ProName": "湖北", "CityName": "荆州市", "CountyName": " ", "TownName": " ", "VillageNam": " " }, "geometry": { "type": "Point", "coordinates": [ 112.238969603968656, 30.335091221560283 ] } },
{ "type": "Feature", "properties": { "NAME": "长沙", "PC": "第一批", "LX": "历史文化名城", "ProName": "湖南", "CityName": "长沙市", "CountyName": " ", "TownName": " ", "VillageNam": " " }, "geometry": { "type": "Point", "coordinates": [ 112.938952603129707, 28.228788864327285 ] } },
{ "type": "Feature", "properties": { "NAME": "广州", "PC": "第一批", "LX": "历史文化名城", "ProName": "广东", "CityName": "广州市", "CountyName": " ", "TownName": " ", "VillageNam": " " }, "geometry": { "type": "Point", "coordinates": [ 113.264991561872407, 23.129084891755664 ] } },
{ "type": "Feature", "properties": { "NAME": "桂林", "PC": "第一批", "LX": "历史文化名城", "ProName": "广西", "CityName": "桂林市", "CountyName": " ", "TownName": " ", "VillageNam": " " }, "geometry": { "type": "Point", "coordinates": [ 110.196999274807851, 25.236951189237235 ] } },
{ "type": "Feature", "properties": { "NAME": "成都", "PC": "第一批", "LX": "历史文化名城", "ProName": "四川", "CityName": "成都市", "CountyName": " ", "TownName": " ", "VillageNam": " " }, "geometry": { "type": "Point", "coordinates": [ 104.075014105270171, 30.649856512180889 ] } },
{ "type": "Feature", "properties": { "NAME": "遵义", "PC": "第一批", "LX": "历史文化名城", "ProName": "贵州", "CityName": "遵义市", "CountyName": " ", "TownName": " ", "VillageNam": " " }, "geometry": { "type": "Point", "coordinates": [ 106.927001380943494, 27.725381435511405 ] } },
{ "type": "Feature", "properties": { "NAME": "昆明", "PC": "第一批", "LX": "历史文化名城", "ProName": "云南", "CityName": "昆明市", "CountyName": " ", "TownName": " ", "VillageNam": " " }, "geometry": { "type": "Point", "coordinates": [ 102.845995105796561, 24.867670767533628 ] } },
{ "type": "Feature", "properties": { "NAME": "大理", "PC": "第一批", "LX": "历史文化名城", "ProName": "云南", "CityName": "大理市", "CountyName": " ", "TownName": " ", "VillageNam": " " }, "geometry": { "type": "Point", "coordinates": [ 100.229995405420325, 25.591614274155472 ] } },
{ "type": "Feature", "properties": { "NAME": "拉萨", "PC": "第一批", "LX": "历史文化名城", "ProName": "西藏", "CityName": "拉萨市", "CountyName": " ", "TownName": " ", "VillageNam": " " }, "geometry": { "type": "Point", "coordinates": [ 91.114301931936737, 29.644051430388874 ] } },
{ "type": "Feature", "properties": { "NAME": "西安", "PC": "第一批", "LX": "历史文化名城", "ProName": "陕西", "CityName": "西安市", "CountyName": " ", "TownName": " ", "VillageNam": " " }, "geometry": { "type": "Point", "coordinates": [ 108.939999697369672, 34.341018277473992 ] } },
{ "type": "Feature", "properties": { "NAME": "延安", "PC": "第一批", "LX": "历史文化名城", "ProName": "陕西", "CityName": "延安市", "CountyName": " ", "TownName": " ", "VillageNam": " " }, "geometry": { "type": "Point", "coordinates": [ 109.490001783034884, 36.585448791210709 ] } },
{ "type": "Feature", "properties": { "NAME": "天津", "PC": "第二批", "LX": "历史文化名城", "ProName": "天津", "CityName": " ", "CountyName": " ", "TownName": " ", "VillageNam": " " }, "geometry": { "type": "Point", "coordinates": [ 117.203014540585443, 39.087744902097761 ] } },
{ "type": "Feature", "properties": { "NAME": "保定", "PC": "第二批", "LX": "历史文化名城", "ProName": "河北", "CityName": "保定市", "CountyName": " ", "TownName": " ", "VillageNam": " " }, "geometry": { "type": "Point", "coordinates": [ 115.464989751494485, 38.873923975899501 ] } },
{ "type": "Feature", "properties": { "NAME": "济南", "PC": "第二批", "LX": "历史文化名城", "ProName": "山东", "CityName": "济南市", "CountyName": " ", "TownName": " ", "VillageNam": " " }, "geometry": { "type": "Point", "coordinates": [ 117.119991013003826, 36.650215480265054 ] } },
{ "type": "Feature", "properties": { "NAME": "安阳", "PC": "第二批", "LX": "历史文化名城", "ProName": "河南", "CityName": "安阳市", "CountyName": " ", "TownName": " ", "VillageNam": " " }, "geometry": { "type": "Point", "coordinates": [ 114.392979281424942, 36.100044237925118 ] } },
{ "type": "Feature", "properties": { "NAME": "南阳", "PC": "第二批", "LX": "历史文化名城", "ProName": "河南", "CityName": "南阳市", "CountyName": " ", "TownName": " ", "VillageNam": " " }, "geometry": { "type": "Point", "coordinates": [ 112.527971697072175, 32.990616340073252 ] } },
{ "type": "Feature", "properties": { "NAME": "商丘", "PC": "第二批", "LX": "历史文化名城", "ProName": "河南", "CityName": "商丘市", "CountyName": " ", "TownName": " ", "VillageNam": " " }, "geometry": { "type": "Point", "coordinates": [ 115.65599071679425, 34.414100055800823 ] } },
{ "type": "Feature", "properties": { "NAME": "武汉", "PC": "第二批", "LX": "历史文化名城", "ProName": "湖北", "CityName": "武汉市", "CountyName": " ", "TownName": " ", "VillageNam": " " }, "geometry": { "type": "Point", "coordinates": [ 114.304994090500202, 30.592787466425765 ] } },
{ "type": "Feature", "properties": { "NAME": "襄阳", "PC": "第二批", "LX": "历史文化名城", "ProName": "湖北", "CityName": "襄阳市", "CountyName": " ", "TownName": " ", "VillageNam": " " }, "geometry": { "type": "Point", "coordinates": [ 112.121980108709195, 32.009049928116497 ] } },
{ "type": "Feature", "properties": { "NAME": "潮州", "PC": "第二批", "LX": "历史文化名城", "ProName": "广东", "CityName": "潮州市", "CountyName": " ", "TownName": " ", "VillageNam": " " }, "geometry": { "type": "Point", "coordinates": [ 116.622992844814263, 23.656372977461317 ] } },
{ "type": "Feature", "properties": { "NAME": "重庆", "PC": "第二批", "LX": "历史文化名城", "ProName": "重庆", "CityName": "重庆市", "CountyName": " ", "TownName": " ", "VillageNam": " " }, "geometry": { "type": "Point", "coordinates": [ 106.552006687865074, 29.562685666950092 ] } },
{ "type": "Feature", "properties": { "NAME": "阆中", "PC": "第二批", "LX": "历史文化名城", "ProName": "四川", "CityName": "南充市", "CountyName": "阆中市", "TownName": " ", "VillageNam": " " }, "geometry": { "type": "Point", "coordinates": [ 106.005004548581098, 31.558282206626902 ] } },
{ "type": "Feature", "properties": { "NAME": "宜宾", "PC": "第二批", "LX": "历史文化名城", "ProName": "四川", "CityName": "宜宾市", "CountyName": " ", "TownName": " ", "VillageNam": " " }, "geometry": { "type": "Point", "coordinates": [ 104.642999696493618, 28.751690712910921 ] } },
{ "type": "Feature", "properties": { "NAME": "自贡", "PC": "第二批", "LX": "历史文化名城", "ProName": "四川", "CityName": "自贡市", "CountyName": " ", "TownName": " ", "VillageNam": " " }, "geometry": { "type": "Point", "coordinates": [ 104.77801671755401, 29.339323883500008 ] } },
{ "type": "Feature", "properties": { "NAME": "镇远", "PC": "第二批", "LX": "历史文化名城", "ProName": "贵州", "CityName": "黔东南苗族侗族自治州", "CountyName": "镇远县", "TownName": " ", "VillageNam": " " }, "geometry": { "type": "Point", "coordinates": [ 108.429690340265509, 27.049092252034541 ] } },
{ "type": "Feature", "properties": { "NAME": "丽江", "PC": "第二批", "LX": "历史文化名城", "ProName": "云南", "CityName": "丽江市", "CountyName": " ", "TownName": " ", "VillageNam": " " }, "geometry": { "type": "Point", "coordinates": [ 100.226005986198203, 26.854515662817889 ] } },
{ "type": "Feature", "properties": { "NAME": "日喀则", "PC": "第二批", "LX": "历史文化名城", "ProName": "西藏", "CityName": "日喀则市", "CountyName": " ", "TownName": " ", "VillageNam": " " }, "geometry": { "type": "Point", "coordinates": [ 88.887157366503018, 29.269751751866444 ] } },
{ "type": "Feature", "properties": { "NAME": "韩城", "PC": "第二批", "LX": "历史文化名城", "ProName": "陕西", "CityName": "渭南市", "CountyName": "韩城市", "TownName": " ", "VillageNam": " " }, "geometry": { "type": "Point", "coordinates": [ 110.442986044825631, 35.47633159156149 ] } },
{ "type": "Feature", "properties": { "NAME": "榆林", "PC": "第二批", "LX": "历史文化名城", "ProName": "陕西", "CityName": "榆林市", "CountyName": " ", "TownName": " ", "VillageNam": " " }, "geometry": { "type": "Point", "coordinates": [ 109.735000002450491, 38.285194685646161 ] } },
{ "type": "Feature", "properties": { "NAME": "武威", "PC": "第二批", "LX": "历史文化名城", "ProName": "甘肃", "CityName": "武威市", "CountyName": " ", "TownName": " ", "VillageNam": " " }, "geometry": { "type": "Point", "coordinates": [ 102.638053649046157, 37.928405445134011 ] } },
{ "type": "Feature", "properties": { "NAME": "张掖", "PC": "第二批", "LX": "历史文化名城", "ProName": "甘肃", "CityName": "张掖市", "CountyName": " ", "TownName": " ", "VillageNam": " " }, "geometry": { "type": "Point", "coordinates": [ 100.449987362641977, 38.925812039716973 ] } },
{ "type": "Feature", "properties": { "NAME": "敦煌", "PC": "第二批", "LX": "历史文化名城", "ProName": "甘肃", "CityName": "敦煌市", "CountyName": " ", "TownName": " ", "VillageNam": " " }, "geometry": { "type": "Point", "coordinates": [ 94.662091261272636, 40.141706272984038 ] } },
{ "type": "Feature", "properties": { "NAME": "银川", "PC": "第二批", "LX": "历史文化名城", "ProName": "甘肃", "CityName": "银川市", "CountyName": " ", "TownName": " ", "VillageNam": " " }, "geometry": { "type": "Point", "coordinates": [ 106.196646377434973, 38.490699027162883 ] } },
{ "type": "Feature", "properties": { "NAME": "喀什", "PC": "第二批", "LX": "历史文化名城", "ProName": "新疆", "CityName": "喀什地区", "CountyName": " ", "TownName": " ", "VillageNam": " " }, "geometry": { "type": "Point", "coordinates": [ 75.989868949183389, 39.4701219067693 ] } },
{ "type": "Feature", "properties": { "NAME": "呼和浩特", "PC": "第二批", "LX": "历史文化名城", "ProName": "内蒙古", "CityName": "呼和浩特市", "CountyName": " ", "TownName": " ", "VillageNam": " " }, "geometry": { "type": "Point", "coordinates": [ 111.748945103955919, 40.842528067532776 ] } },
{ "type": "Feature", "properties": { "NAME": "上海", "PC": "第二批", "LX": "历史文化名城", "ProName": "上海", "CityName": " ", "CountyName": " ", "TownName": " ", "VillageNam": " " }, "geometry": { "type": "Point", "coordinates": [ 121.473996019071365, 31.230001476259318 ] } },
{ "type": "Feature", "properties": { "NAME": "徐州", "PC": "第二批", "LX": "历史文化名城", "ProName": "江苏", "CityName": "徐州市", "CountyName": " ", "TownName": " ", "VillageNam": " " }, "geometry": { "type": "Point", "coordinates": [ 117.283981730532517, 34.206912879363657 ] } },
{ "type": "Feature", "properties": { "NAME": "平遥", "PC": "第二批", "LX": "历史文化名城", "ProName": "山西", "CityName": "晋中市", "CountyName": "平遥县", "TownName": " ", "VillageNam": " " }, "geometry": { "type": "Point", "coordinates": [ 112.176000000766564, 37.189482679113446 ] } },
{ "type": "Feature", "properties": { "NAME": "沈阳", "PC": "第二批", "LX": "历史文化名城", "ProName": "辽宁", "CityName": "沈阳市", "CountyName": " ", "TownName": " ", "VillageNam": " " }, "geometry": { "type": "Point", "coordinates": [ 123.464667981850965, 41.677545052624374 ] } },
{ "type": "Feature", "properties": { "NAME": "镇江", "PC": "第二批", "LX": "历史文化名城", "ProName": "江苏", "CityName": "镇江市", "CountyName": " ", "TownName": " ", "VillageNam": " " }, "geometry": { "type": "Point", "coordinates": [ 119.423990187702827, 32.188622022637126 ] } },
{ "type": "Feature", "properties": { "NAME": "常熟", "PC": "第二批", "LX": "历史文化名城", "ProName": "江苏", "CityName": "苏州市", "CountyName": "常熟市", "TownName": " ", "VillageNam": " " }, "geometry": { "type": "Point", "coordinates": [ 120.75298740934052, 31.653619889428018 ] } },
{ "type": "Feature", "properties": { "NAME": "淮安", "PC": "第二批", "LX": "历史文化名城", "ProName": "江苏", "CityName": "淮安市", "CountyName": " ", "TownName": " ", "VillageNam": " " }, "geometry": { "type": "Point", "coordinates": [ 119.014987731463876, 33.610179380959586 ] } },
{ "type": "Feature", "properties": { "NAME": "宁波", "PC": "第二批", "LX": "历史文化名城", "ProName": "浙江", "CityName": "宁波市", "CountyName": " ", "TownName": " ", "VillageNam": " " }, "geometry": { "type": "Point", "coordinates": [ 121.621989167523608, 29.860384681009947 ] } },
{ "type": "Feature", "properties": { "NAME": "歙县", "PC": "第二批", "LX": "历史文化名城", "ProName": "安徽", "CityName": "黄山市", "CountyName": "歙县", "TownName": " ", "VillageNam": " " }, "geometry": { "type": "Point", "coordinates": [ 118.414989619742386, 29.86018688857693 ] } },
{ "type": "Feature", "properties": { "NAME": "寿县", "PC": "第二批", "LX": "历史文化名城", "ProName": "安徽", "CityName": "淮南市", "CountyName": "寿县", "TownName": " ", "VillageNam": " " }, "geometry": { "type": "Point", "coordinates": [ 116.798976655436604, 32.555794581380766 ] } },
{ "type": "Feature", "properties": { "NAME": "亳州", "PC": "第二批", "LX": "历史文化名城", "ProName": "安徽", "CityName": "亳州市", "CountyName": " ", "TownName": " ", "VillageNam": " " }, "geometry": { "type": "Point", "coordinates": [ 115.77797802771984, 33.84453046054869 ] } },
{ "type": "Feature", "properties": { "NAME": "福州", "PC": "第二批", "LX": "历史文化名城", "ProName": "福建", "CityName": "福州市", "CountyName": " ", "TownName": " ", "VillageNam": " " }, "geometry": { "type": "Point", "coordinates": [ 119.297005686171573, 26.074167461451765 ] } },
{ "type": "Feature", "properties": { "NAME": "漳州", "PC": "第二批", "LX": "历史文化名城", "ProName": "福建", "CityName": "漳州市", "CountyName": " ", "TownName": " ", "VillageNam": " " }, "geometry": { "type": "Point", "coordinates": [ 117.647007621101892, 24.513170172506431 ] } },
{ "type": "Feature", "properties": { "NAME": "南昌", "PC": "第二批", "LX": "历史文化名城", "ProName": "江西", "CityName": "南昌市", "CountyName": " ", "TownName": " ", "VillageNam": " " }, "geometry": { "type": "Point", "coordinates": [ 115.857982997309762, 28.683775196588883 ] } },
{ "type": "Feature", "properties": { "NAME": "正定", "PC": "第三批", "LX": "历史文化名城", "ProName": "河北", "CityName": "石家庄市", "CountyName": "正定县", "TownName": " ", "VillageNam": " " }, "geometry": { "type": "Point", "coordinates": [ 114.571038635732165, 38.145615136635044 ] } },
{ "type": "Feature", "properties": { "NAME": "邯郸", "PC": "第三批", "LX": "历史文化名城", "ProName": "河北", "CityName": "邯郸市", "CountyName": "邯郸县", "TownName": " ", "VillageNam": " " }, "geometry": { "type": "Point", "coordinates": [ 114.53902618025478, 36.625598932254221 ] } },
{ "type": "Feature", "properties": { "NAME": "新绛", "PC": "第三批", "LX": "历史文化名城", "ProName": "山西", "CityName": "运城市", "CountyName": "新绛县", "TownName": " ", "VillageNam": " " }, "geometry": { "type": "Point", "coordinates": [ 111.224998422731701, 35.616385464716913 ] } },
{ "type": "Feature", "properties": { "NAME": "代县", "PC": "第三批", "LX": "历史文化名城", "ProName": "山西", "CityName": "忻州市", "CountyName": "代县", "TownName": " ", "VillageNam": " " }, "geometry": { "type": "Point", "coordinates": [ 112.95993734225074, 39.066967983558435 ] } },
{ "type": "Feature", "properties": { "NAME": "祁县", "PC": "第三批", "LX": "历史文化名城", "ProName": "山西", "CityName": "晋中市", "CountyName": "祁县", "TownName": " ", "VillageNam": " " }, "geometry": { "type": "Point", "coordinates": [ 112.335993494743576, 37.357900323346783 ] } },
{ "type": "Feature", "properties": { "NAME": "哈尔滨", "PC": "第三批", "LX": "历史文化名城", "ProName": "黑龙江", "CityName": "哈尔滨市", "CountyName": " ", "TownName": " ", "VillageNam": " " }, "geometry": { "type": "Point", "coordinates": [ 126.534991613998571, 45.803197761229676 ] } },
{ "type": "Feature", "properties": { "NAME": "吉林", "PC": "第三批", "LX": "历史文化名城", "ProName": "吉林", "CityName": "吉林市", "CountyName": " ", "TownName": " ", "VillageNam": " " }, "geometry": { "type": "Point", "coordinates": [ 126.549040554033951, 43.837822559314596 ] } },
{ "type": "Feature", "properties": { "NAME": "集安", "PC": "第三批", "LX": "历史文化名城", "ProName": "吉林", "CityName": "通化市", "CountyName": "集安市", "TownName": " ", "VillageNam": " " }, "geometry": { "type": "Point", "coordinates": [ 126.193016895099092, 41.125565277453966 ] } },
{ "type": "Feature", "properties": { "NAME": "衢州", "PC": "第三批", "LX": "历史文化名城", "ProName": "浙江", "CityName": "衢州市", "CountyName": " ", "TownName": " ", "VillageNam": " " }, "geometry": { "type": "Point", "coordinates": [ 118.860012025310084, 28.969885771019268 ] } },
{ "type": "Feature", "properties": { "NAME": "临海", "PC": "第三批", "LX": "历史文化名城", "ProName": "浙江", "CityName": "台州市", "CountyName": "临海市", "TownName": " ", "VillageNam": " " }, "geometry": { "type": "Point", "coordinates": [ 121.144996924216144, 28.858395728647046 ] } },
{ "type": "Feature", "properties": { "NAME": "长汀", "PC": "第三批", "LX": "历史文化名城", "ProName": "福建", "CityName": "龙岩市", "CountyName": "长汀县", "TownName": " ", "VillageNam": " " }, "geometry": { "type": "Point", "coordinates": [ 116.356992409029701, 25.83343033582932 ] } },
{ "type": "Feature", "properties": { "NAME": "赣州", "PC": "第三批", "LX": "历史文化名城", "ProName": "江西", "CityName": "赣州市", "CountyName": " ", "TownName": " ", "VillageNam": " " }, "geometry": { "type": "Point", "coordinates": [ 114.934002192085785, 25.829084870129133 ] } },
{ "type": "Feature", "properties": { "NAME": "青岛", "PC": "第三批", "LX": "历史文化名城", "ProName": "山东", "CityName": "青岛市", "CountyName": " ", "TownName": " ", "VillageNam": " " }, "geometry": { "type": "Point", "coordinates": [ 120.382979450704838, 36.06612862409407 ] } },
{ "type": "Feature", "properties": { "NAME": "聊城", "PC": "第三批", "LX": "历史文化名城", "ProName": "山东", "CityName": "聊城市", "CountyName": " ", "TownName": " ", "VillageNam": " " }, "geometry": { "type": "Point", "coordinates": [ 115.984995935445554, 36.457092227858823 ] } },
{ "type": "Feature", "properties": { "NAME": "邹城", "PC": "第三批", "LX": "历史文化名城", "ProName": "山东", "CityName": "济宁市", "CountyName": "邹城市", "TownName": " ", "VillageNam": " " }, "geometry": { "type": "Point", "coordinates": [ 117.008014039835444, 35.40118597743745 ] } },
{ "type": "Feature", "properties": { "NAME": "临淄", "PC": "第三批", "LX": "历史文化名城", "ProName": "山东", "CityName": "淄博市", "CountyName": "临淄区", "TownName": " ", "VillageNam": " " }, "geometry": { "type": "Point", "coordinates": [ 118.309003338012573, 36.825937765206824 ] } },
{ "type": "Feature", "properties": { "NAME": "郑州", "PC": "第三批", "LX": "历史文化名城", "ProName": "河南", "CityName": "郑州市", "CountyName": " ", "TownName": " ", "VillageNam": " " }, "geometry": { "type": "Point", "coordinates": [ 113.624987318503315, 34.747186466587131 ] } },
{ "type": "Feature", "properties": { "NAME": "浚县", "PC": "第三批", "LX": "历史文化名城", "ProName": "河南", "CityName": "鹤壁市", "CountyName": "浚县", "TownName": " ", "VillageNam": " " }, "geometry": { "type": "Point", "coordinates": [ 114.551020905641337, 35.676153567205823 ] } },
{ "type": "Feature", "properties": { "NAME": "随州", "PC": "第三批", "LX": "历史文化名城", "ProName": "湖北", "CityName": "随州市", "CountyName": " ", "TownName": " ", "VillageNam": " " }, "geometry": { "type": "Point", "coordinates": [ 113.382994436153879, 31.690247171503156 ] } },
{ "type": "Feature", "properties": { "NAME": "钟祥", "PC": "第三批", "LX": "历史文化名城", "ProName": "湖北", "CityName": "荆门市", "CountyName": "钟祥市", "TownName": " ", "VillageNam": " " }, "geometry": { "type": "Point", "coordinates": [ 112.588008595106132, 31.167949551244735 ] } },
{ "type": "Feature", "properties": { "NAME": "岳阳", "PC": "第三批", "LX": "历史文化名城", "ProName": "湖南", "CityName": "岳阳市", "CountyName": " ", "TownName": " ", "VillageNam": " " }, "geometry": { "type": "Point", "coordinates": [ 113.129032312682369, 29.35707761603031 ] } },
{ "type": "Feature", "properties": { "NAME": "肇庆", "PC": "第三批", "LX": "历史文化名城", "ProName": "广东", "CityName": "肇庆市", "CountyName": " ", "TownName": " ", "VillageNam": " " }, "geometry": { "type": "Point", "coordinates": [ 112.4649932935462, 23.046798267992013 ] } },
{ "type": "Feature", "properties": { "NAME": "佛山", "PC": "第三批", "LX": "历史文化名城", "ProName": "广东", "CityName": "佛山市", "CountyName": " ", "TownName": " ", "VillageNam": " " }, "geometry": { "type": "Point", "coordinates": [ 113.12200194265651, 23.021834432831916 ] } },
{ "type": "Feature", "properties": { "NAME": "梅州", "PC": "第三批", "LX": "历史文化名城", "ProName": "广东", "CityName": "梅州市", "CountyName": " ", "TownName": " ", "VillageNam": " " }, "geometry": { "type": "Point", "coordinates": [ 116.123007300241753, 24.288262174768676 ] } },
{ "type": "Feature", "properties": { "NAME": "雷州", "PC": "第三批", "LX": "历史文化名城", "ProName": "广东", "CityName": "湛江市", "CountyName": "雷州市", "TownName": " ", "VillageNam": " " }, "geometry": { "type": "Point", "coordinates": [ 110.096001251293714, 20.914188165747024 ] } },
{ "type": "Feature", "properties": { "NAME": "柳州", "PC": "第三批", "LX": "历史文化名城", "ProName": "广西", "CityName": "柳州市", "CountyName": " ", "TownName": " ", "VillageNam": " " }, "geometry": { "type": "Point", "coordinates": [ 109.427988002395963, 24.325728960295887 ] } },
{ "type": "Feature", "properties": { "NAME": "琼山", "PC": "第三批", "LX": "历史文化名城", "ProName": "海南", "CityName": "海口市", "CountyName": "琼山区", "TownName": " ", "VillageNam": " " }, "geometry": { "type": "Point", "coordinates": [ 110.35399410388942, 20.003392079112118 ] } },
{ "type": "Feature", "properties": { "NAME": "乐山", "PC": "第三批", "LX": "历史文化名城", "ProName": "四川", "CityName": "乐山市", "CountyName": " ", "TownName": " ", "VillageNam": " " }, "geometry": { "type": "Point", "coordinates": [ 103.765980636843182, 29.552048358194725 ] } },
{ "type": "Feature", "properties": { "NAME": "都江堰", "PC": "第三批", "LX": "历史文化名城", "ProName": "四川", "CityName": "成都市", "CountyName": "都江堰市", "TownName": " ", "VillageNam": " " }, "geometry": { "type": "Point", "coordinates": [ 103.610870859497425, 31.001180895824465 ] } },
{ "type": "Feature", "properties": { "NAME": "泸州", "PC": "第三批", "LX": "历史文化名城", "ProName": "四川", "CityName": "泸州市", "CountyName": " ", "TownName": " ", "VillageNam": " " }, "geometry": { "type": "Point", "coordinates": [ 105.442008841096225, 28.871768229539182 ] } },
{ "type": "Feature", "properties": { "NAME": "建水", "PC": "第三批", "LX": "历史文化名城", "ProName": "云南", "CityName": "红河哈尼族彝族自治州", "CountyName": "建水县", "TownName": " ", "VillageNam": " " }, "geometry": { "type": "Point", "coordinates": [ 102.826959657290345, 23.635038279958643 ] } },
{ "type": "Feature", "properties": { "NAME": "巍山", "PC": "第三批", "LX": "历史文化名城", "ProName": "云南", "CityName": "大理白族自治州", "CountyName": "巍山彝族回族自治县", "TownName": " ", "VillageNam": " " }, "geometry": { "type": "Point", "coordinates": [ 100.307099196462858, 25.227212735902757 ] } },
{ "type": "Feature", "properties": { "NAME": "江孜", "PC": "第三批", "LX": "历史文化名城", "ProName": "西藏", "CityName": "日喀则地区", "CountyName": "江孜县", "TownName": " ", "VillageNam": " " }, "geometry": { "type": "Point", "coordinates": [ 89.605472425904424, 28.911736980828778 ] } },
{ "type": "Feature", "properties": { "NAME": "咸阳", "PC": "第三批", "LX": "历史文化名城", "ProName": "陕西", "CityName": "咸阳市", "CountyName": " ", "TownName": " ", "VillageNam": " " }, "geometry": { "type": "Point", "coordinates": [ 108.708985790575781, 34.329138083792678 ] } },
{ "type": "Feature", "properties": { "NAME": "汉中", "PC": "第三批", "LX": "历史文化名城", "ProName": "陕西", "CityName": "汉中市", "CountyName": " ", "TownName": " ", "VillageNam": " " }, "geometry": { "type": "Point", "coordinates": [ 107.022991574975777, 33.067570028554591 ] } },
{ "type": "Feature", "properties": { "NAME": "天水", "PC": "第三批", "LX": "历史文化名城", "ProName": "甘肃", "CityName": "天水市", "CountyName": " ", "TownName": " ", "VillageNam": " " }, "geometry": { "type": "Point", "coordinates": [ 105.735367566851593, 34.586104635119419 ] } },
{ "type": "Feature", "properties": { "NAME": "铜仁", "PC": "第三批", "LX": "历史文化名城", "ProName": "贵州", "CityName": "铜仁市", "CountyName": " ", "TownName": " ", "VillageNam": " " }, "geometry": { "type": "Point", "coordinates": [ 109.181011623416268, 27.690551792798882 ] } },
{ "type": "Feature", "properties": { "NAME": "山海关", "PC": "增补", "LX": "历史文化名城", "ProName": "河北", "CityName": "秦皇岛市", "CountyName": "山海关区", "TownName": " ", "VillageNam": " " }, "geometry": { "type": "Point", "coordinates": [ 119.776001972364313, 39.978194905331435 ] } },
{ "type": "Feature", "properties": { "NAME": "凤凰", "PC": "增补", "LX": "历史文化名城", "ProName": "湖南", "CityName": "湘西土家族苗族自治州", "CountyName": "凤凰县", "TownName": " ", "VillageNam": " " }, "geometry": { "type": "Point", "coordinates": [ 109.602478393765267, 27.947436510296473 ] } },
{ "type": "Feature", "properties": { "NAME": "濮阳", "PC": "增补", "LX": "历史文化名城", "ProName": "河南", "CityName": "濮阳市", "CountyName": " ", "TownName": " ", "VillageNam": " " }, "geometry": { "type": "Point", "coordinates": [ 115.028991019713587, 35.761800470242108 ] } },
{ "type": "Feature", "properties": { "NAME": "安庆", "PC": "增补", "LX": "历史文化名城", "ProName": "安徽", "CityName": "安庆市", "CountyName": " ", "TownName": " ", "VillageNam": " " }, "geometry": { "type": "Point", "coordinates": [ 117.057006549660599, 30.525291041830087 ] } },
{ "type": "Feature", "properties": { "NAME": "泰安", "PC": "增补", "LX": "历史文化名城", "ProName": "山东", "CityName": "泰安市", "CountyName": " ", "TownName": " ", "VillageNam": " " }, "geometry": { "type": "Point", "coordinates": [ 117.087983802850133, 36.19992892681212 ] } },
{ "type": "Feature", "properties": { "NAME": "海口", "PC": "增补", "LX": "历史文化名城", "ProName": "海南", "CityName": "海口市", "CountyName": " ", "TownName": " ", "VillageNam": " " }, "geometry": { "type": "Point", "coordinates": [ 110.318970786798772, 20.03825920413032 ] } },
{ "type": "Feature", "properties": { "NAME": "金华", "PC": "增补", "LX": "历史文化名城", "ProName": "浙江", "CityName": "金华市", "CountyName": " ", "TownName": " ", "VillageNam": " " }, "geometry": { "type": "Point", "coordinates": [ 119.647005044571898, 29.078285723231755 ] } },
{ "type": "Feature", "properties": { "NAME": "绩溪", "PC": "增补", "LX": "历史文化名城", "ProName": "安徽", "CityName": "宣城市", "CountyName": "绩溪县", "TownName": " ", "VillageNam": " " }, "geometry": { "type": "Point", "coordinates": [ 118.578978181706361, 30.067198071446999 ] } },
{ "type": "Feature", "properties": { "NAME": "吐鲁番", "PC": "增补", "LX": "历史文化名城", "ProName": "新疆", "CityName": "吐鲁番地区", "CountyName": "吐鲁番市", "TownName": " ", "VillageNam": " " }, "geometry": { "type": "Point", "coordinates": [ 89.19078647531181, 42.95102410222632 ] } },
{ "type": "Feature", "properties": { "NAME": "特克斯", "PC": "增补", "LX": "历史文化名城", "ProName": "新疆", "CityName": "伊犁哈萨克自治州", "CountyName": "特克斯县", "TownName": " ", "VillageNam": " " }, "geometry": { "type": "Point", "coordinates": [ 81.836013987488187, 43.217992430573645 ] } },
{ "type": "Feature", "properties": { "NAME": "无锡", "PC": "增补", "LX": "历史文化名城", "ProName": "江苏", "CityName": "无锡市", "CountyName": " ", "TownName": " ", "VillageNam": " " }, "geometry": { "type": "Point", "coordinates": [ 120.312002799279384, 31.493057781814045 ] } },
{ "type": "Feature", "properties": { "NAME": "南通", "PC": "增补", "LX": "历史文化名城", "ProName": "江苏", "CityName": "南通市", "CountyName": " ", "TownName": " ", "VillageNam": " " }, "geometry": { "type": "Point", "coordinates": [ 120.895000905305409, 31.980892029623945 ] } },
{ "type": "Feature", "properties": { "NAME": "北海", "PC": "增补", "LX": "历史文化名城", "ProName": "广西", "CityName": "北海市", "CountyName": " ", "TownName": " ", "VillageNam": " " }, "geometry": { "type": "Point", "coordinates": [ 109.119975649728175, 21.481055493758006 ] } },
{ "type": "Feature", "properties": { "NAME": "宜兴", "PC": "增补", "LX": "历史文化名城", "ProName": "江苏", "CityName": "无锡市", "CountyName": " ", "TownName": " ", "VillageNam": " " }, "geometry": { "type": "Point", "coordinates": [ 119.824997835044812, 31.337293813281345 ] } },
{ "type": "Feature", "properties": { "NAME": "嘉兴", "PC": "增补", "LX": "历史文化名城", "ProName": "浙江", "CityName": "嘉兴市", "CountyName": " ", "TownName": " ", "VillageNam": " " }, "geometry": { "type": "Point", "coordinates": [ 120.757003532253691, 30.745042326836654 ] } },
{ "type": "Feature", "properties": { "NAME": "太原", "PC": "增补", "LX": "历史文化名城", "ProName": "山西", "CityName": "太原市", "CountyName": " ", "TownName": " ", "VillageNam": " " }, "geometry": { "type": "Point", "coordinates": [ 112.550027873906359, 37.870668880088743 ] } },
{ "type": "Feature", "properties": { "NAME": "中山", "PC": "增补", "LX": "历史文化名城", "ProName": "广东", "CityName": "中山市", "CountyName": " ", "TownName": " ", "VillageNam": " " }, "geometry": { "type": "Point", "coordinates": [ 113.392994991500061, 22.515978235171239 ] } },
{ "type": "Feature", "properties": { "NAME": "蓬莱", "PC": "增补", "LX": "历史文化名城", "ProName": "山东", "CityName": "烟台市", "CountyName": " ", "TownName": " ", "VillageNam": " " }, "geometry": { "type": "Point", "coordinates": [ 120.758966995972457, 37.810686739093718 ] } },
{ "type": "Feature", "properties": { "NAME": "会理", "PC": "增补", "LX": "历史文化名城", "ProName": "四川", "CityName": "凉山彝族自治州", "CountyName": "会理县", "TownName": " ", "VillageNam": " " }, "geometry": { "type": "Point", "coordinates": [ 102.244997292508344, 26.654882856197155 ] } },
{ "type": "Feature", "properties": { "NAME": "库车", "PC": "增补", "LX": "历史文化名城", "ProName": "新疆", "CityName": "阿克苏地区", "CountyName": "库车县", "TownName": " ", "VillageNam": " " }, "geometry": { "type": "Point", "coordinates": [ 82.961881103569027, 41.717600560096265 ] } },
{ "type": "Feature", "properties": { "NAME": "伊宁", "PC": "增补", "LX": "历史文化名城", "ProName": "新疆", "CityName": "伊犁哈萨克自治州", "CountyName": "伊宁县", "TownName": " ", "VillageNam": " " }, "geometry": { "type": "Point", "coordinates": [ 81.527315153046359, 43.977085447949797 ] } },
{ "type": "Feature", "properties": { "NAME": "泰州", "PC": "增补", "LX": "历史文化名城", "ProName": "江苏", "CityName": "泰州市", "CountyName": " ", "TownName": " ", "VillageNam": " " }, "geometry": { "type": "Point", "coordinates": [ 119.922995508023845, 32.454916961254639 ] } },
{ "type": "Feature", "properties": { "NAME": "会泽", "PC": "增补", "LX": "历史文化名城", "ProName": "云南", "CityName": "曲靖市", "CountyName": "会泽县", "TownName": " ", "VillageNam": " " }, "geometry": { "type": "Point", "coordinates": [ 103.296989652901374, 26.418181096810802 ] } },
{ "type": "Feature", "properties": { "NAME": "烟台", "PC": "增补", "LX": "历史文化名城", "ProName": "山东", "CityName": "烟台市", "CountyName": " ", "TownName": " ", "VillageNam": " " }, "geometry": { "type": "Point", "coordinates": [ 121.447996738133611, 37.463673336222882 ] } },
{ "type": "Feature", "properties": { "NAME": "青州", "PC": "增补", "LX": "历史文化名城", "ProName": "山东", "CityName": "潍坊市", "CountyName": "青州市", "TownName": " ", "VillageNam": " " }, "geometry": { "type": "Point", "coordinates": [ 118.479985329267805, 36.68469593372425 ] } },
{ "type": "Feature", "properties": { "NAME": "湖州", "PC": "增补", "LX": "历史文化名城", "ProName": "浙江", "CityName": "湖州市", "CountyName": " ", "TownName": " ", "VillageNam": " " }, "geometry": { "type": "Point", "coordinates": [ 120.087985619137669, 30.893051687986063 ] } },
{ "type": "Feature", "properties": { "NAME": "齐齐哈尔", "PC": "增补", "LX": "历史文化名城", "ProName": "黑龙江", "CityName": "齐齐哈尔市", "CountyName": " ", "TownName": " ", "VillageNam": " " }, "geometry": { "type": "Point", "coordinates": [ 123.917982196005383, 47.354217324895224 ] } },
{ "type": "Feature", "properties": { "NAME": "常州", "PC": "增补", "LX": "历史文化名城", "ProName": "江苏", "CityName": "常州市", "CountyName": " ", "TownName": " ", "VillageNam": " " }, "geometry": { "type": "Point", "coordinates": [ 119.974986513970009, 31.809698695525682 ] } },
{ "type": "Feature", "properties": { "NAME": "瑞金", "PC": "增补", "LX": "历史文化名城", "ProName": "江西", "CityName": "赣州市", "CountyName": "瑞金市", "TownName": " ", "VillageNam": " " }, "geometry": { "type": "Point", "coordinates": [ 116.026996755080873, 25.885426703457153 ] } },
{ "type": "Feature", "properties": { "NAME": "惠州", "PC": "增补", "LX": "历史文化名城", "ProName": "广东", "CityName": "惠州市", "CountyName": "惠城区", "TownName": " ", "VillageNam": " " }, "geometry": { "type": "Point", "coordinates": [ 114.417001526550763, 23.11068326475538 ] } },
{ "type": "Feature", "properties": { "NAME": "温州", "PC": "增补", "LX": "历史文化名城", "ProName": "浙江", "CityName": "温州市", "CountyName": " ", "TownName": " ", "VillageNam": " " }, "geometry": { "type": "Point", "coordinates": [ 120.700004966494177, 27.994825702681158 ] } },
{ "type": "Feature", "properties": { "NAME": "高邮市", "PC": "增补", "LX": "历史文化名城", "ProName": "江苏", "CityName": "扬州市", "CountyName": "高邮市", "TownName": " ", "VillageNam": " " }, "geometry": { "type": "Point", "coordinates": [ 119.459014174678344, 32.781490917264165 ] } },
{ "type": "Feature", "properties": { "NAME": "永州市", "PC": "增补", "LX": "历史文化名城", "ProName": "湖南", "CityName": "永州市", "CountyName": " ", "TownName": " ", "VillageNam": " " }, "geometry": { "type": "Point", "coordinates": [ 111.612982969086858, 26.419620464967693 ] } },
{ "type": "Feature", "properties": { "NAME": "长春市", "PC": "增补", "LX": "历史文化名城", "ProName": "吉林", "CityName": "长春市", "CountyName": " ", "TownName": " ", "VillageNam": " " }, "geometry": { "type": "Point", "coordinates": [ 125.323982262079468, 43.816222432704272 ] } },
{ "type": "Feature", "properties": { "NAME": "龙泉市", "PC": "增补", "LX": "历史文化名城", "ProName": "浙江", "CityName": "丽水市", "CountyName": "龙泉市", "TownName": " ", "VillageNam": " " }, "geometry": { "type": "Point", "coordinates": [ 119.142011706528038, 28.074253992007886 ] } },
{ "type": "Feature", "properties": { "NAME": "蔚县", "PC": "增补", "LX": "历史文化名城", "ProName": "河北", "CityName": "张家口市", "CountyName": "蔚县", "TownName": " ", "VillageNam": " " }, "geometry": { "type": "Point", "coordinates": [ 114.589013316314521, 39.840749167160773 ] } },
{ "type": "Feature", "properties": { "NAME": "静升镇", "PC": "第一批", "LX": "历史文化名镇", "ProName": "山西", "CityName": "晋中市", "CountyName": "灵石县", "TownName": "静升镇", "VillageNam": " " }, "geometry": { "type": "Point", "coordinates": [ 111.874242390734494, 36.894781316622655 ] } },
{ "type": "Feature", "properties": { "NAME": "周庄镇", "PC": "第一批", "LX": "历史文化名镇", "ProName": "江苏", "CityName": "苏州市", "CountyName": "昆山市", "TownName": "周庄镇", "VillageNam": " " }, "geometry": { "type": "Point", "coordinates": [ 120.851817983109115, 31.113649761745311 ] } },
{ "type": "Feature", "properties": { "NAME": "同里镇", "PC": "第一批", "LX": "历史文化名镇", "ProName": "江苏", "CityName": "苏州市", "CountyName": "吴江区", "TownName": "同里镇", "VillageNam": " " }, "geometry": { "type": "Point", "coordinates": [ 120.759966351201157, 31.205740038613566 ] } },
{ "type": "Feature", "properties": { "NAME": "甪直镇", "PC": "第一批", "LX": "历史文化名镇", "ProName": "江苏", "CityName": "苏州市", "CountyName": "吴中区", "TownName": "甪直镇", "VillageNam": " " }, "geometry": { "type": "Point", "coordinates": [ 120.872633230396204, 31.268836631157157 ] } },
{ "type": "Feature", "properties": { "NAME": "西塘镇", "PC": "第一批", "LX": "历史文化名镇", "ProName": "浙江", "CityName": "嘉兴市", "CountyName": "嘉善县", "TownName": "西塘镇", "VillageNam": " " }, "geometry": { "type": "Point", "coordinates": [ 120.891300796926785, 30.939132153270958 ] } },
{ "type": "Feature", "properties": { "NAME": "乌镇", "PC": "第一批", "LX": "历史文化名镇", "ProName": "浙江", "CityName": "嘉兴市", "CountyName": "桐乡市", "TownName": "乌镇", "VillageNam": " " }, "geometry": { "type": "Point", "coordinates": [ 120.487959165986709, 30.748170990823777 ] } },
{ "type": "Feature", "properties": { "NAME": "古田镇", "PC": "第一批", "LX": "历史文化名镇", "ProName": "福建", "CityName": "龙岩市", "CountyName": "上杭县", "TownName": "古田镇", "VillageNam": " " }, "geometry": { "type": "Point", "coordinates": [ 116.824388876041979, 25.2237788846003 ] } },
{ "type": "Feature", "properties": { "NAME": "涞滩镇", "PC": "第一批", "LX": "历史文化名镇", "ProName": "重庆", "CityName": "重庆市", "CountyName": "合川区", "TownName": "涞滩镇", "VillageNam": " " }, "geometry": { "type": "Point", "coordinates": [ 106.487784386951986, 30.173316709385031 ] } },
{ "type": "Feature", "properties": { "NAME": "西沱镇", "PC": "第一批", "LX": "历史文化名镇", "ProName": "重庆", "CityName": "重庆市", "CountyName": "石柱县", "TownName": "西沱镇", "VillageNam": " " }, "geometry": { "type": "Point", "coordinates": [ 108.214508151277798, 30.399325032825971 ] } },
{ "type": "Feature", "properties": { "NAME": "双江镇", "PC": "第一批", "LX": "历史文化名镇", "ProName": "重庆", "CityName": "重庆市", "CountyName": "潼南县", "TownName": "双江镇", "VillageNam": " " }, "geometry": { "type": "Point", "coordinates": [ 105.749368216249323, 30.215724843893057 ] } },
{ "type": "Feature", "properties": { "NAME": "暖泉镇", "PC": "第二批", "LX": "历史文化名镇", "ProName": "河北", "CityName": "张家口市", "CountyName": "蔚县", "TownName": "暖泉镇", "VillageNam": " " }, "geometry": { "type": "Point", "coordinates": [ 114.434991801391135, 39.803021195625767 ] } },
{ "type": "Feature", "properties": { "NAME": "碛口镇", "PC": "第二批", "LX": "历史文化名镇", "ProName": "山西", "CityName": "吕梁市", "CountyName": "临县", "TownName": "碛口镇", "VillageNam": " " }, "geometry": { "type": "Point", "coordinates": [ 110.7948060987205, 37.641952999705282 ] } },
{ "type": "Feature", "properties": { "NAME": "永陵镇", "PC": "第二批", "LX": "历史文化名镇", "ProName": "辽宁", "CityName": "抚顺市", "CountyName": "新宾满族自治县", "TownName": "永陵镇", "VillageNam": " " }, "geometry": { "type": "Point", "coordinates": [ 124.820539193932291, 41.706956418248218 ] } },
{ "type": "Feature", "properties": { "NAME": "枫泾镇", "PC": "第二批", "LX": "历史文化名镇", "ProName": "上海", "CityName": "上海市", "CountyName": "金山区", "TownName": "枫泾镇", "VillageNam": " " }, "geometry": { "type": "Point", "coordinates": [ 121.009647303067865, 30.888694221999973 ] } },
{ "type": "Feature", "properties": { "NAME": "木渎镇", "PC": "第二批", "LX": "历史文化名镇", "ProName": "江苏", "CityName": "苏州市", "CountyName": "吴中区", "TownName": "木渎镇", "VillageNam": " " }, "geometry": { "type": "Point", "coordinates": [ 120.506110063042044, 31.253952856351887 ] } },
{ "type": "Feature", "properties": { "NAME": "沙溪镇", "PC": "第二批", "LX": "历史文化名镇", "ProName": "江苏", "CityName": "苏州市", "CountyName": "太仓市", "TownName": "沙溪镇", "VillageNam": " " }, "geometry": { "type": "Point", "coordinates": [ 121.065526182377113, 31.566926369283525 ] } },
{ "type": "Feature", "properties": { "NAME": "溱潼镇", "PC": "第二批", "LX": "历史文化名镇", "ProName": "江苏", "CityName": "泰州市", "CountyName": "姜堰区", "TownName": "溱潼镇", "VillageNam": " " }, "geometry": { "type": "Point", "coordinates": [ 120.082842551007502, 32.641760401530547 ] } },
{ "type": "Feature", "properties": { "NAME": "黄桥镇", "PC": "第二批", "LX": "历史文化名镇", "ProName": "江苏", "CityName": "泰兴市", "CountyName": "泰兴市", "TownName": "黄桥镇", "VillageNam": " " }, "geometry": { "type": "Point", "coordinates": [ 120.233814895853854, 32.242962910492118 ] } },
{ "type": "Feature", "properties": { "NAME": "南浔镇", "PC": "第二批", "LX": "历史文化名镇", "ProName": "浙江", "CityName": "湖州市", "CountyName": "南浔区", "TownName": "南浔镇", "VillageNam": " " }, "geometry": { "type": "Point", "coordinates": [ 120.430522736602697, 30.875592896523582 ] } },
{ "type": "Feature", "properties": { "NAME": "安昌镇", "PC": "第二批", "LX": "历史文化名镇", "ProName": "浙江", "CityName": "绍兴市", "CountyName": "河桥区", "TownName": "安昌镇", "VillageNam": " " }, "geometry": { "type": "Point", "coordinates": [ 120.497474193295531, 30.134318186012688 ] } },
{ "type": "Feature", "properties": { "NAME": "慈城镇", "PC": "第二批", "LX": "历史文化名镇", "ProName": "浙江", "CityName": "宁波市", "CountyName": "江北区", "TownName": "慈城镇", "VillageNam": " " }, "geometry": { "type": "Point", "coordinates": [ 121.449776104452923, 29.979618144205602 ] } },
{ "type": "Feature", "properties": { "NAME": "石浦镇", "PC": "第二批", "LX": "历史文化名镇", "ProName": "浙江", "CityName": "宁波市", "CountyName": "象山县", "TownName": "石浦镇", "VillageNam": " " }, "geometry": { "type": "Point", "coordinates": [ 121.946460086753504, 29.208742516941868 ] } },
{ "type": "Feature", "properties": { "NAME": "和平镇", "PC": "第二批", "LX": "历史文化名镇", "ProName": "福建", "CityName": "南平市", "CountyName": "邵武市", "TownName": "和平镇", "VillageNam": " " }, "geometry": { "type": "Point", "coordinates": [ 117.30144970708335, 27.159994171718488 ] } },
{ "type": "Feature", "properties": { "NAME": "瑶里镇", "PC": "第二批", "LX": "历史文化名镇", "ProName": "江西", "CityName": "景德镇市", "CountyName": "浮梁县", "TownName": "瑶里镇", "VillageNam": " " }, "geometry": { "type": "Point", "coordinates": [ 117.577538777836381, 29.524840969878646 ] } },
{ "type": "Feature", "properties": { "NAME": "神垕镇", "PC": "第二批", "LX": "历史文化名镇", "ProName": "河南", "CityName": "许昌市", "CountyName": "禹州市", "TownName": "神垕镇", "VillageNam": " " }, "geometry": { "type": "Point", "coordinates": [ 113.229869137624704, 34.122280419795651 ] } },
{ "type": "Feature", "properties": { "NAME": "荆紫关镇", "PC": "第二批", "LX": "历史文化名镇", "ProName": "河南", "CityName": "南阳市", "CountyName": "淅川县", "TownName": "荆紫关镇", "VillageNam": " " }, "geometry": { "type": "Point", "coordinates": [ 111.022206623902221, 33.248747823320656 ] } },
{ "type": "Feature", "properties": { "NAME": "周老嘴镇", "PC": "第二批", "LX": "历史文化名镇", "ProName": "湖北", "CityName": "荆州市", "CountyName": "监利县", "TownName": "周老嘴镇", "VillageNam": " " }, "geometry": { "type": "Point", "coordinates": [ 112.984910597247904, 30.033871231418974 ] } },
{ "type": "Feature", "properties": { "NAME": "七里坪镇", "PC": "第二批", "LX": "历史文化名镇", "ProName": "湖北", "CityName": "黄冈市", "CountyName": "红安县", "TownName": "七里坪镇", "VillageNam": " " }, "geometry": { "type": "Point", "coordinates": [ 114.654874096297618, 31.462900906958197 ] } },
{ "type": "Feature", "properties": { "NAME": "里耶镇", "PC": "第二批", "LX": "历史文化名镇", "ProName": "湖南", "CityName": "湘西土家族苗族自治州", "CountyName": "龙山县", "TownName": "里耶镇", "VillageNam": " " }, "geometry": { "type": "Point", "coordinates": [ 109.296502737363397, 28.782681944538965 ] } },
{ "type": "Feature", "properties": { "NAME": "沙湾镇", "PC": "第二批", "LX": "历史文化名镇", "ProName": "广东", "CityName": "广州市", "CountyName": "番禺区", "TownName": "沙湾镇", "VillageNam": " " }, "geometry": { "type": "Point", "coordinates": [ 113.334369903440475, 22.903761704212538 ] } },
{ "type": "Feature", "properties": { "NAME": "吴阳镇", "PC": "第二批", "LX": "历史文化名镇", "ProName": "广东", "CityName": "湛江市", "CountyName": "吴川市", "TownName": "吴阳镇", "VillageNam": " " }, "geometry": { "type": "Point", "coordinates": [ 110.692195136094753, 21.346959932767007 ] } },
{ "type": "Feature", "properties": { "NAME": "大圩镇", "PC": "第二批", "LX": "历史文化名镇", "ProName": "广西", "CityName": "桂林市", "CountyName": "灵川县", "TownName": "大圩镇", "VillageNam": " " }, "geometry": { "type": "Point", "coordinates": [ 110.427442590265102, 25.181443251528364 ] } },
{ "type": "Feature", "properties": { "NAME": "龙兴镇", "PC": "第二批", "LX": "历史文化名镇", "ProName": "重庆", "CityName": "重庆市", "CountyName": "渝北区", "TownName": "龙兴镇", "VillageNam": " " }, "geometry": { "type": "Point", "coordinates": [ 106.823093688489436, 29.685358866704849 ] } },
{ "type": "Feature", "properties": { "NAME": "中山镇", "PC": "第二批", "LX": "历史文化名镇", "ProName": "重庆", "CityName": "重庆市", "CountyName": "江津区", "TownName": "中山镇", "VillageNam": " " }, "geometry": { "type": "Point", "coordinates": [ 106.33663320112835, 28.855504189629663 ] } },
{ "type": "Feature", "properties": { "NAME": "龙潭镇", "PC": "第二批", "LX": "历史文化名镇", "ProName": "重庆", "CityName": "重庆市", "CountyName": "酉阳县", "TownName": "龙潭镇", "VillageNam": " " }, "geometry": { "type": "Point", "coordinates": [ 108.968336295957741, 28.754235128259975 ] } },
{ "type": "Feature", "properties": { "NAME": "平乐镇", "PC": "第二批", "LX": "历史文化名镇", "ProName": "四川", "CityName": "成都市", "CountyName": "邛崃市", "TownName": "平乐镇", "VillageNam": " " }, "geometry": { "type": "Point", "coordinates": [ 103.334691658684633, 30.342644083634156 ] } },
{ "type": "Feature", "properties": { "NAME": "安仁镇", "PC": "第二批", "LX": "历史文化名镇", "ProName": "四川", "CityName": "成都市", "CountyName": "大邑县", "TownName": "安仁镇", "VillageNam": " " }, "geometry": { "type": "Point", "coordinates": [ 103.618087905411727, 30.50724165285602 ] } },
{ "type": "Feature", "properties": { "NAME": "老观镇", "PC": "第二批", "LX": "历史文化名镇", "ProName": "四川", "CityName": "南充市", "CountyName": "阆中市", "TownName": "老观镇", "VillageNam": " " }, "geometry": { "type": "Point", "coordinates": [ 106.179353390437257, 31.762930660534604 ] } },
{ "type": "Feature", "properties": { "NAME": "李庄镇", "PC": "第二批", "LX": "历史文化名镇", "ProName": "四川", "CityName": "宜宾市", "CountyName": "翠屏区", "TownName": "李庄镇", "VillageNam": " " }, "geometry": { "type": "Point", "coordinates": [ 104.800682305199857, 28.803343926097035 ] } },
{ "type": "Feature", "properties": { "NAME": "青岩镇", "PC": "第二批", "LX": "历史文化名镇", "ProName": "贵州", "CityName": "贵阳市", "CountyName": "花溪区", "TownName": "青岩镇", "VillageNam": " " }, "geometry": { "type": "Point", "coordinates": [ 106.686374956674157, 26.331570905244575 ] } },
{ "type": "Feature", "properties": { "NAME": "土城镇", "PC": "第二批", "LX": "历史文化名镇", "ProName": "贵州", "CityName": "遵义市", "CountyName": "习水县", "TownName": "土城镇", "VillageNam": " " }, "geometry": { "type": "Point", "coordinates": [ 106.004118552487427, 28.272804933706542 ] } },
{ "type": "Feature", "properties": { "NAME": "黑井镇", "PC": "第二批", "LX": "历史文化名镇", "ProName": "云南", "CityName": "楚雄州", "CountyName": "禄丰县", "TownName": "黑井镇", "VillageNam": " " }, "geometry": { "type": "Point", "coordinates": [ 101.746205927781347, 25.371409495364219 ] } },
{ "type": "Feature", "properties": { "NAME": "哈达铺镇", "PC": "第二批", "LX": "历史文化名镇", "ProName": "甘肃", "CityName": "陇南市", "CountyName": "宕昌县", "TownName": "哈达铺镇", "VillageNam": " " }, "geometry": { "type": "Point", "coordinates": [ 104.227916436050478, 34.226619440884932 ] } },
{ "type": "Feature", "properties": { "NAME": "鲁克沁镇", "PC": "第二批", "LX": "历史文化名镇", "ProName": "新疆", "CityName": "吐鲁番市", "CountyName": "鄯善县", "TownName": "鲁克沁镇", "VillageNam": " " }, "geometry": { "type": "Point", "coordinates": [ 89.75126953719483, 42.744568543937106 ] } },
{ "type": "Feature", "properties": { "NAME": "广府镇", "PC": "第三批", "LX": "历史文化名镇", "ProName": "河北", "CityName": "邯郸市", "CountyName": "永年县", "TownName": "广府镇", "VillageNam": " " }, "geometry": { "type": "Point", "coordinates": [ 114.73156292902253, 36.701365410846208 ] } },
{ "type": "Feature", "properties": { "NAME": "汾城镇", "PC": "第三批", "LX": "历史文化名镇", "ProName": "山西", "CityName": "临汾市", "CountyName": "襄汾县", "TownName": "汾城镇", "VillageNam": " " }, "geometry": { "type": "Point", "coordinates": [ 111.280605471013942, 35.8187464381447 ] } },
{ "type": "Feature", "properties": { "NAME": "娘子关镇", "PC": "第三批", "LX": "历史文化名镇", "ProName": "山西", "CityName": "阳泉市", "CountyName": "平定县", "TownName": "娘子关镇", "VillageNam": " " }, "geometry": { "type": "Point", "coordinates": [ 113.884738783345, 37.96713843285287 ] } },
{ "type": "Feature", "properties": { "NAME": "横道河子镇", "PC": "第三批", "LX": "历史文化名镇", "ProName": "黑龙江", "CityName": "牡丹江市", "CountyName": "海林市", "TownName": "横道河子镇", "VillageNam": " " }, "geometry": { "type": "Point", "coordinates": [ 129.071471085838084, 44.814805940393455 ] } },
{ "type": "Feature", "properties": { "NAME": "朱家角镇", "PC": "第三批", "LX": "历史文化名镇", "ProName": "上海", "CityName": "上海市", "CountyName": "青浦区", "TownName": "朱家角镇", "VillageNam": " " }, "geometry": { "type": "Point", "coordinates": [ 121.054336065433532, 31.110538722209117 ] } },
{ "type": "Feature", "properties": { "NAME": "淳溪镇", "PC": "第三批", "LX": "历史文化名镇", "ProName": "江苏", "CityName": "南京市", "CountyName": "高淳县", "TownName": "淳溪镇", "VillageNam": " " }, "geometry": { "type": "Point", "coordinates": [ 118.885748584064544, 31.333658994775899 ] } },
{ "type": "Feature", "properties": { "NAME": "千灯镇", "PC": "第三批", "LX": "历史文化名镇", "ProName": "江苏", "CityName": "苏州市", "CountyName": "昆山市", "TownName": "千灯镇", "VillageNam": " " }, "geometry": { "type": "Point", "coordinates": [ 121.001354033769786, 31.265410369154321 ] } },
{ "type": "Feature", "properties": { "NAME": "安丰镇", "PC": "第三批", "LX": "历史文化名镇", "ProName": "江苏", "CityName": "盐城市", "CountyName": "东台市", "TownName": "安丰镇", "VillageNam": " " }, "geometry": { "type": "Point", "coordinates": [ 120.402611112942026, 32.734770852014385 ] } },
{ "type": "Feature", "properties": { "NAME": "东浦镇", "PC": "第三批", "LX": "历史文化名镇", "ProName": "浙江", "CityName": "绍兴市", "CountyName": "越城区", "TownName": "东浦镇", "VillageNam": " " }, "geometry": { "type": "Point", "coordinates": [ 120.53570672492981, 30.052173884951724 ] } },
{ "type": "Feature", "properties": { "NAME": "前童镇", "PC": "第三批", "LX": "历史文化名镇", "ProName": "浙江", "CityName": "宁波市", "CountyName": "宁海县", "TownName": "前童镇", "VillageNam": " " }, "geometry": { "type": "Point", "coordinates": [ 121.317396131171037, 29.255439960922438 ] } },
{ "type": "Feature", "properties": { "NAME": "佛堂镇", "PC": "第三批", "LX": "历史文化名镇", "ProName": "浙江", "CityName": "金华市", "CountyName": "义乌市", "TownName": "佛堂镇", "VillageNam": " " }, "geometry": { "type": "Point", "coordinates": [ 120.017441026928026, 29.196220112101535 ] } },
{ "type": "Feature", "properties": { "NAME": "廿八都镇", "PC": "第三批", "LX": "历史文化名镇", "ProName": "浙江", "CityName": "衢州市", "CountyName": "江山市", "TownName": "廿八都镇", "VillageNam": " " }, "geometry": { "type": "Point", "coordinates": [ 118.483212894112256, 28.292263799693124 ] } },
{ "type": "Feature", "properties": { "NAME": "三河镇", "PC": "第三批", "LX": "历史文化名镇", "ProName": "安徽", "CityName": "合肥市", "CountyName": "肥西县", "TownName": "三河镇", "VillageNam": " " }, "geometry": { "type": "Point", "coordinates": [ 117.251547022400317, 31.514920659446005 ] } },
{ "type": "Feature", "properties": { "NAME": "毛坦厂镇", "PC": "第三批", "LX": "历史文化名镇", "ProName": "安徽", "CityName": "六安市", "CountyName": "金安区", "TownName": "毛坦厂镇", "VillageNam": " " }, "geometry": { "type": "Point", "coordinates": [ 116.568334895895163, 31.349047914385149 ] } },
{ "type": "Feature", "properties": { "NAME": "上清镇", "PC": "第三批", "LX": "历史文化名镇", "ProName": "江西", "CityName": "鹰潭市", "CountyName": "龙虎山风景区", "TownName": "上清镇", "VillageNam": " " }, "geometry": { "type": "Point", "coordinates": [ 117.033141348696589, 28.04448341286118 ] } },
{ "type": "Feature", "properties": { "NAME": "赊店镇", "PC": "第三批", "LX": "历史文化名镇", "ProName": "河南", "CityName": "南阳市", "CountyName": "社旗县", "TownName": "赊店镇", "VillageNam": " " }, "geometry": { "type": "Point", "coordinates": [ 112.948035128839535, 33.050087577418097 ] } },
{ "type": "Feature", "properties": { "NAME": "瞿家湾镇", "PC": "第三批", "LX": "历史文化名镇", "ProName": "湖北", "CityName": "荆州市", "CountyName": "洪湖市", "TownName": "瞿家湾镇", "VillageNam": " " }, "geometry": { "type": "Point", "coordinates": [ 113.193556731620404, 29.96549019016193 ] } },
{ "type": "Feature", "properties": { "NAME": "程集镇", "PC": "第三批", "LX": "历史文化名镇", "ProName": "湖北", "CityName": "荆州市", "CountyName": "监利县", "TownName": "程集镇", "VillageNam": " " }, "geometry": { "type": "Point", "coordinates": [ 112.645847866736659, 29.936483768128813 ] } },
{ "type": "Feature", "properties": { "NAME": "上津镇", "PC": "第三批", "LX": "历史文化名镇", "ProName": "湖北", "CityName": "十堰市", "CountyName": "郧西县", "TownName": "上津镇", "VillageNam": " " }, "geometry": { "type": "Point", "coordinates": [ 110.043246076016317, 33.142421069417722 ] } },
{ "type": "Feature", "properties": { "NAME": "赤坎镇", "PC": "第三批", "LX": "历史文化名镇", "ProName": "广东", "CityName": "江门市", "CountyName": "开平市", "TownName": "赤坎镇", "VillageNam": " " }, "geometry": { "type": "Point", "coordinates": [ 112.589904497808007, 22.321697568589403 ] } },
{ "type": "Feature", "properties": { "NAME": "唐家湾镇", "PC": "第三批", "LX": "历史文化名镇", "ProName": "广东", "CityName": "珠海市", "CountyName": "珠海市", "TownName": "唐家湾镇", "VillageNam": " " }, "geometry": { "type": "Point", "coordinates": [ 113.539322521827955, 22.349115719199609 ] } },
{ "type": "Feature", "properties": { "NAME": "碣石镇", "PC": "第三批", "LX": "历史文化名镇", "ProName": "广东", "CityName": "汕尾市", "CountyName": "陆丰市", "TownName": "碣石镇", "VillageNam": " " }, "geometry": { "type": "Point", "coordinates": [ 115.830489843523466, 22.816864383188467 ] } },
{ "type": "Feature", "properties": { "NAME": "黄姚镇", "PC": "第三批", "LX": "历史文化名镇", "ProName": "广西", "CityName": "贺州市", "CountyName": "昭平县", "TownName": "黄姚镇", "VillageNam": " " }, "geometry": { "type": "Point", "coordinates": [ 111.206698069051811, 24.248017008352285 ] } },
{ "type": "Feature", "properties": { "NAME": "兴坪镇", "PC": "第三批", "LX": "历史文化名镇", "ProName": "广西", "CityName": "桂林市", "CountyName": "阳朔县", "TownName": "兴坪镇", "VillageNam": " " }, "geometry": { "type": "Point", "coordinates": [ 110.530261747738422, 24.914786861425682 ] } },
{ "type": "Feature", "properties": { "NAME": "崖城镇", "PC": "第三批", "LX": "历史文化名镇", "ProName": "海南", "CityName": "三亚市", "CountyName": "崖城区", "TownName": "崖城镇", "VillageNam": " " }, "geometry": { "type": "Point", "coordinates": [ 109.156934441826522, 18.302711851596012 ] } },
{ "type": "Feature", "properties": { "NAME": "金刀峡镇", "PC": "第三批", "LX": "历史文化名镇", "ProName": "重庆", "CityName": "重庆市", "CountyName": "北碚区", "TownName": "金刀峡镇", "VillageNam": " " }, "geometry": { "type": "Point", "coordinates": [ 106.631679083345574, 30.037017292102327 ] } },
{ "type": "Feature", "properties": { "NAME": "塘河镇", "PC": "第三批", "LX": "历史文化名镇", "ProName": "重庆", "CityName": "重庆市", "CountyName": "江津区", "TownName": "塘河镇", "VillageNam": " " }, "geometry": { "type": "Point", "coordinates": [ 106.050840532618935, 28.95662722019301 ] } },
{ "type": "Feature", "properties": { "NAME": "东溪镇", "PC": "第三批", "LX": "历史文化名镇", "ProName": "重庆", "CityName": "重庆市", "CountyName": "綦江区", "TownName": "东溪镇", "VillageNam": " " }, "geometry": { "type": "Point", "coordinates": [ 106.659100166323057, 28.764370461495758 ] } },
{ "type": "Feature", "properties": { "NAME": "黄龙溪镇", "PC": "第三批", "LX": "历史文化名镇", "ProName": "四川", "CityName": "成都市", "CountyName": "双流县", "TownName": "黄龙溪镇", "VillageNam": " " }, "geometry": { "type": "Point", "coordinates": [ 103.969908286576867, 30.317722989444988 ] } },
{ "type": "Feature", "properties": { "NAME": "仙市镇", "PC": "第三批", "LX": "历史文化名镇", "ProName": "四川", "CityName": "自贡市", "CountyName": "沿滩区", "TownName": "仙市镇", "VillageNam": " " }, "geometry": { "type": "Point", "coordinates": [ 104.879209632010344, 29.331197605906809 ] } },
{ "type": "Feature", "properties": { "NAME": "尧坝镇", "PC": "第三批", "LX": "历史文化名镇", "ProName": "四川", "CityName": "泸州市", "CountyName": "合江县", "TownName": "尧坝镇", "VillageNam": " " }, "geometry": { "type": "Point", "coordinates": [ 105.647772757273088, 28.742425617877618 ] } },
{ "type": "Feature", "properties": { "NAME": "太平镇", "PC": "第三批", "LX": "历史文化名镇", "ProName": "四川", "CityName": "泸州市", "CountyName": "古蔺县", "TownName": "太平镇", "VillageNam": " " }, "geometry": { "type": "Point", "coordinates": [ 106.041243353277125, 28.135829560530922 ] } },
{ "type": "Feature", "properties": { "NAME": "旧州镇", "PC": "第三批", "LX": "历史文化名镇", "ProName": "贵州", "CityName": "黔东南苗族侗族自治州", "CountyName": "黄平县", "TownName": "旧州镇", "VillageNam": " " }, "geometry": { "type": "Point", "coordinates": [ 107.779735762187542, 26.98824872532499 ] } },
{ "type": "Feature", "properties": { "NAME": "西江镇", "PC": "第三批", "LX": "历史文化名镇", "ProName": "贵州", "CityName": "黔东南苗族侗族自治州雷山县朝阳路", "CountyName": "雷山县", "TownName": "西江镇", "VillageNam": " " }, "geometry": { "type": "Point", "coordinates": [ 108.173145748788954, 26.494538552198378 ] } },
{ "type": "Feature", "properties": { "NAME": "沙溪镇", "PC": "第三批", "LX": "历史文化名镇", "ProName": "云南", "CityName": "大理白族自治州", "CountyName": "剑川县", "TownName": "沙溪镇", "VillageNam": " " }, "geometry": { "type": "Point", "coordinates": [ 99.846419966858406, 26.313787924311931 ] } },
{ "type": "Feature", "properties": { "NAME": "和顺镇", "PC": "第三批", "LX": "历史文化名镇", "ProName": "云南", "CityName": "保山市", "CountyName": "腾冲县", "TownName": "和顺镇", "VillageNam": " " }, "geometry": { "type": "Point", "coordinates": [ 98.458915593210492, 25.006949202956218 ] } },
{ "type": "Feature", "properties": { "NAME": "昌珠镇", "PC": "第三批", "LX": "历史文化名镇", "ProName": "西藏", "CityName": "山南地区", "CountyName": "乃东县", "TownName": "昌珠镇", "VillageNam": " " }, "geometry": { "type": "Point", "coordinates": [ 91.772724934842913, 29.187010930431381 ] } },
{ "type": "Feature", "properties": { "NAME": "青城镇", "PC": "第三批", "LX": "历史文化名镇", "ProName": "甘肃", "CityName": "兰州市", "CountyName": "榆中县", "TownName": "青城镇", "VillageNam": " " }, "geometry": { "type": "Point", "coordinates": [ 104.190500200716613, 36.330589353249522 ] } },
{ "type": "Feature", "properties": { "NAME": "连城镇", "PC": "第三批", "LX": "历史文化名镇", "ProName": "甘肃", "CityName": "兰州市", "CountyName": "永登县", "TownName": "连城镇", "VillageNam": " " }, "geometry": { "type": "Point", "coordinates": [ 102.847770321906125, 36.586465033495791 ] } },
{ "type": "Feature", "properties": { "NAME": "大靖镇", "PC": "第三批", "LX": "历史文化名镇", "ProName": "甘肃", "CityName": "武威市", "CountyName": "古浪县", "TownName": "大靖镇", "VillageNam": " " }, "geometry": { "type": "Point", "coordinates": [ 103.423386778297768, 37.486852334775293 ] } },
{ "type": "Feature", "properties": { "NAME": "惠远镇", "PC": "第三批", "LX": "历史文化名镇", "ProName": "新疆", "CityName": "伊犁哈萨克自治州", "CountyName": "霍城县", "TownName": "惠远镇", "VillageNam": " " }, "geometry": { "type": "Point", "coordinates": [ 80.908024632546969, 43.993056529462493 ] } },
{ "type": "Feature", "properties": { "NAME": "古北口镇", "PC": "第四批", "LX": "历史文化名镇", "ProName": "北京", "CityName": "北京市", "CountyName": "密云县", "TownName": "古北口镇", "VillageNam": " " }, "geometry": { "type": "Point", "coordinates": [ 117.163887134296715, 40.692124228365635 ] } },
{ "type": "Feature", "properties": { "NAME": "杨柳青镇", "PC": "第四批", "LX": "历史文化名镇", "ProName": "天津", "CityName": "天津市", "CountyName": "西青区", "TownName": "杨柳青镇", "VillageNam": " " }, "geometry": { "type": "Point", "coordinates": [ 117.015011561225904, 39.128431687637644 ] } },
{ "type": "Feature", "properties": { "NAME": "大社镇", "PC": "第四批", "LX": "历史文化名镇", "ProName": "河北", "CityName": "邯郸市", "CountyName": "峰峰矿区", "TownName": "大社镇", "VillageNam": " " }, "geometry": { "type": "Point", "coordinates": [ 114.241414581796292, 36.54760532457864 ] } },
{ "type": "Feature", "properties": { "NAME": "天长镇", "PC": "第四批", "LX": "历史文化名镇", "ProName": "河北", "CityName": "石家庄市", "CountyName": "井陉县", "TownName": "天长镇", "VillageNam": " " }, "geometry": { "type": "Point", "coordinates": [ 114.023520630555154, 37.992449486405008 ] } },
{ "type": "Feature", "properties": { "NAME": "大阳镇", "PC": "第四批", "LX": "历史文化名镇", "ProName": "山西", "CityName": "晋城市", "CountyName": "泽州县", "TownName": "大阳镇", "VillageNam": " " }, "geometry": { "type": "Point", "coordinates": [ 112.791093073696842, 35.66611813463809 ] } },
{ "type": "Feature", "properties": { "NAME": " ", "PC": "第四批", "LX": "历史文化名镇", "ProName": "内蒙古", "CityName": "赤峰市", "CountyName": "喀喇沁旗王爷府镇", "TownName": " ", "VillageNam": " " }, "geometry": { "type": "Point", "coordinates": [ 118.51386607729718, 41.842578016285671 ] } },
{ "type": "Feature", "properties": { "NAME": "多伦淖尔镇", "PC": "第四批", "LX": "历史文化名镇", "ProName": "内蒙古", "CityName": "锡林郭勒盟", "CountyName": "多伦县", "TownName": "多伦淖尔镇", "VillageNam": " " }, "geometry": { "type": "Point", "coordinates": [ 116.480110061532528, 42.203991447409173 ] } },
{ "type": "Feature", "properties": { "NAME": "牛庄镇", "PC": "第四批", "LX": "历史文化名镇", "ProName": "辽宁", "CityName": "鞍山市", "CountyName": "海城市", "TownName": "牛庄镇", "VillageNam": " " }, "geometry": { "type": "Point", "coordinates": [ 122.535931507311986, 40.948759702428802 ] } },
{ "type": "Feature", "properties": { "NAME": "叶赫镇", "PC": "第四批", "LX": "历史文化名镇", "ProName": "吉林", "CityName": "四平市", "CountyName": "铁东区", "TownName": "叶赫镇", "VillageNam": " " }, "geometry": { "type": "Point", "coordinates": [ 124.544055873458547, 42.950050809621104 ] } },
{ "type": "Feature", "properties": { "NAME": "乌拉街镇", "PC": "第四批", "LX": "历史文化名镇", "ProName": "吉林", "CityName": "吉林市", "CountyName": "龙潭区", "TownName": "乌拉街镇", "VillageNam": " " }, "geometry": { "type": "Point", "coordinates": [ 126.471501973037675, 44.090846872790792 ] } },
{ "type": "Feature", "properties": { "NAME": "爱辉镇", "PC": "第四批", "LX": "历史文化名镇", "ProName": "黑龙江", "CityName": "黑河市", "CountyName": "黑河市", "TownName": "爱辉镇", "VillageNam": " " }, "geometry": { "type": "Point", "coordinates": [ 127.491262581069691, 49.985163751652003 ] } },
{ "type": "Feature", "properties": { "NAME": "新场镇", "PC": "第四批", "LX": "历史文化名镇", "ProName": "上海", "CityName": "浦东新区", "CountyName": "南汇区", "TownName": "新场镇", "VillageNam": " " }, "geometry": { "type": "Point", "coordinates": [ 121.660337982400463, 31.047985517928172 ] } },
{ "type": "Feature", "properties": { "NAME": "嘉定镇", "PC": "第四批", "LX": "历史文化名镇", "ProName": "上海", "CityName": "嘉定区", "CountyName": "嘉定区", "TownName": "嘉定镇", "VillageNam": " " }, "geometry": { "type": "Point", "coordinates": [ 121.219712320006394, 31.375468527642411 ] } },
{ "type": "Feature", "properties": { "NAME": "锦溪镇", "PC": "第四批", "LX": "历史文化名镇", "ProName": "江苏", "CityName": "苏州市", "CountyName": "昆山市", "TownName": "锦溪镇", "VillageNam": " " }, "geometry": { "type": "Point", "coordinates": [ 120.900643160567498, 31.174012821861972 ] } },
{ "type": "Feature", "properties": { "NAME": "邵伯镇", "PC": "第四批", "LX": "历史文化名镇", "ProName": "江苏", "CityName": "扬州市", "CountyName": "江都市", "TownName": "邵伯镇", "VillageNam": " " }, "geometry": { "type": "Point", "coordinates": [ 119.519335977091245, 32.521630285556242 ] } },
{ "type": "Feature", "properties": { "NAME": "余东镇", "PC": "第四批", "LX": "历史文化名镇", "ProName": "江苏", "CityName": "南通市", "CountyName": "海门市", "TownName": "余东镇", "VillageNam": " " }, "geometry": { "type": "Point", "coordinates": [ 121.359714876821954, 32.013294316470137 ] } },
{ "type": "Feature", "properties": { "NAME": "沙家浜镇", "PC": "第四批", "LX": "历史文化名镇", "ProName": "江苏", "CityName": "苏州市", "CountyName": "常熟市", "TownName": "沙家浜镇", "VillageNam": " " }, "geometry": { "type": "Point", "coordinates": [ 120.847351010292286, 31.545736053407019 ] } },
{ "type": "Feature", "properties": { "NAME": "皤滩镇", "PC": "第四批", "LX": "历史文化名镇", "ProName": "浙江", "CityName": "台州市", "CountyName": "仙居县", "TownName": "皤滩镇", "VillageNam": " " }, "geometry": { "type": "Point", "coordinates": [ 120.540243799379013, 28.74074588157082 ] } },
{ "type": "Feature", "properties": { "NAME": "岩头镇", "PC": "第四批", "LX": "历史文化名镇", "ProName": "浙江", "CityName": "温州市", "CountyName": "永嘉县", "TownName": "岩头镇", "VillageNam": " " }, "geometry": { "type": "Point", "coordinates": [ 120.735493042450528, 28.338615778517067 ] } },
{ "type": "Feature", "properties": { "NAME": "龙门镇", "PC": "第四批", "LX": "历史文化名镇", "ProName": "浙江", "CityName": "杭州市", "CountyName": "富阳市", "TownName": "龙门镇", "VillageNam": " " }, "geometry": { "type": "Point", "coordinates": [ 119.95099127523271, 29.900739726481099 ] } },
{ "type": "Feature", "properties": { "NAME": "新市镇", "PC": "第四批", "LX": "历史文化名镇", "ProName": "浙江", "CityName": "湖州市", "CountyName": "德清县", "TownName": "新市镇", "VillageNam": " " }, "geometry": { "type": "Point", "coordinates": [ 120.290667843681064, 30.615551704415768 ] } },
{ "type": "Feature", "properties": { "NAME": "许村镇", "PC": "第四批", "LX": "历史文化名镇", "ProName": "安徽", "CityName": "黄山市", "CountyName": "歙县", "TownName": "许村镇", "VillageNam": " " }, "geometry": { "type": "Point", "coordinates": [ 118.322524836378861, 29.993613954008456 ] } },
{ "type": "Feature", "properties": { "NAME": "万安镇", "PC": "第四批", "LX": "历史文化名镇", "ProName": "安徽", "CityName": "黄山市", "CountyName": "休宁县", "TownName": "万安镇", "VillageNam": " " }, "geometry": { "type": "Point", "coordinates": [ 118.211411856916385, 29.79067995087447 ] } },
{ "type": "Feature", "properties": { "NAME": "水东镇", "PC": "第四批", "LX": "历史文化名镇", "ProName": "安徽", "CityName": "宣城市", "CountyName": "宣州区", "TownName": "水东镇", "VillageNam": " " }, "geometry": { "type": "Point", "coordinates": [ 118.96538954398774, 30.793008408988445 ] } },
{ "type": "Feature", "properties": { "NAME": "嵩口镇", "PC": "第四批", "LX": "历史文化名镇", "ProName": "福建", "CityName": "福州市", "CountyName": "永泰县", "TownName": "嵩口镇", "VillageNam": " " }, "geometry": { "type": "Point", "coordinates": [ 118.594324432044687, 25.79842752950702 ] } },
{ "type": "Feature", "properties": { "NAME": "葛源镇", "PC": "第四批", "LX": "历史文化名镇", "ProName": "江西", "CityName": "上饶市", "CountyName": "横峰县", "TownName": "葛源镇", "VillageNam": " " }, "geometry": { "type": "Point", "coordinates": [ 117.669253138873884, 28.59862764417953 ] } },
{ "type": "Feature", "properties": { "NAME": "新城镇", "PC": "第四批", "LX": "历史文化名镇", "ProName": "山东", "CityName": "淄博市", "CountyName": "桓台县", "TownName": "新城镇", "VillageNam": " " }, "geometry": { "type": "Point", "coordinates": [ 117.951511108176476, 36.956195444114094 ] } },
{ "type": "Feature", "properties": { "NAME": "朱仙镇", "PC": "第四批", "LX": "历史文化名镇", "ProName": "河南", "CityName": "开封市", "CountyName": "开封县", "TownName": "朱仙镇", "VillageNam": " " }, "geometry": { "type": "Point", "coordinates": [ 114.267028654729089, 34.615189817845703 ] } },
{ "type": "Feature", "properties": { "NAME": "古荥镇", "PC": "第四批", "LX": "历史文化名镇", "ProName": "河南", "CityName": "郑州市", "CountyName": "惠济区", "TownName": "古荥镇", "VillageNam": " " }, "geometry": { "type": "Point", "coordinates": [ 113.533933306873834, 34.877244948058731 ] } },
{ "type": "Feature", "properties": { "NAME": "竹沟镇", "PC": "第四批", "LX": "历史文化名镇", "ProName": "河南", "CityName": "驻马店市", "CountyName": "确山县", "TownName": "竹沟镇", "VillageNam": " " }, "geometry": { "type": "Point", "coordinates": [ 113.729284149886823, 32.788750241667245 ] } },
{ "type": "Feature", "properties": { "NAME": "汀泗桥镇", "PC": "第四批", "LX": "历史文化名镇", "ProName": "湖北", "CityName": "咸宁市", "CountyName": "咸宁市", "TownName": "汀泗桥镇", "VillageNam": " " }, "geometry": { "type": "Point", "coordinates": [ 114.172593727837835, 29.815763261631023 ] } },
{ "type": "Feature", "properties": { "NAME": "龙港镇", "PC": "第四批", "LX": "历史文化名镇", "ProName": "湖北", "CityName": "黄石市", "CountyName": "阳新县", "TownName": "龙港镇", "VillageNam": " " }, "geometry": { "type": "Point", "coordinates": [ 114.957890780733251, 29.613407625245468 ] } },
{ "type": "Feature", "properties": { "NAME": "枝城镇", "PC": "第四批", "LX": "历史文化名镇", "ProName": "湖北", "CityName": "宜昌市", "CountyName": "宜都市", "TownName": "枝城镇", "VillageNam": " " }, "geometry": { "type": "Point", "coordinates": [ 111.500720023123989, 30.297822718292345 ] } },
{ "type": "Feature", "properties": { "NAME": "靖港镇", "PC": "第四批", "LX": "历史文化名镇", "ProName": "湖南", "CityName": "长沙市", "CountyName": "望城县", "TownName": "靖港镇", "VillageNam": " " }, "geometry": { "type": "Point", "coordinates": [ 112.788799930541956, 28.456243899234444 ] } },
{ "type": "Feature", "properties": { "NAME": "芙蓉镇", "PC": "第四批", "LX": "历史文化名镇", "ProName": "湖南", "CityName": "湘西土家族苗族自治州", "CountyName": "永顺县", "TownName": "芙蓉镇", "VillageNam": " " }, "geometry": { "type": "Point", "coordinates": [ 109.974835694783266, 28.767333603601109 ] } },
{ "type": "Feature", "properties": { "NAME": "石龙镇", "PC": "第四批", "LX": "历史文化名镇", "ProName": "广东", "CityName": "东莞市", "CountyName": "东莞市", "TownName": "石龙镇", "VillageNam": " " }, "geometry": { "type": "Point", "coordinates": [ 113.874298607995826, 23.105279758127235 ] } },
{ "type": "Feature", "properties": { "NAME": "秋长镇", "PC": "第四批", "LX": "历史文化名镇", "ProName": "广东", "CityName": "惠州市", "CountyName": "惠阳区", "TownName": "秋长镇", "VillageNam": " " }, "geometry": { "type": "Point", "coordinates": [ 114.398296779230535, 22.789172873199195 ] } },
{ "type": "Feature", "properties": { "NAME": "洪阳镇", "PC": "第四批", "LX": "历史文化名镇", "ProName": "广东", "CityName": "揭阳市", "CountyName": "普宁市", "TownName": "洪阳镇", "VillageNam": " " }, "geometry": { "type": "Point", "coordinates": [ 116.222662423208561, 23.43481706903729 ] } },
{ "type": "Feature", "properties": { "NAME": "中和镇", "PC": "第四批", "LX": "历史文化名镇", "ProName": "海南", "CityName": "儋州市", "CountyName": "儋州市", "TownName": "中和镇", "VillageNam": " " }, "geometry": { "type": "Point", "coordinates": [ 109.350368216696467, 19.743416294654562 ] } },
{ "type": "Feature", "properties": { "NAME": "铺前镇", "PC": "第四批", "LX": "历史文化名镇", "ProName": "海南", "CityName": "文昌市", "CountyName": "文昌市", "TownName": "铺前镇", "VillageNam": " " }, "geometry": { "type": "Point", "coordinates": [ 110.580118870563837, 20.023894161581872 ] } },
{ "type": "Feature", "properties": { "NAME": "定城镇", "PC": "第四批", "LX": "历史文化名镇", "ProName": "海南", "CityName": "定安县", "CountyName": "定安县", "TownName": "定城镇", "VillageNam": " " }, "geometry": { "type": "Point", "coordinates": [ 110.367982052420203, 19.679872996961251 ] } },
{ "type": "Feature", "properties": { "NAME": "走马镇", "PC": "第四批", "LX": "历史文化名镇", "ProName": "重庆", "CityName": "重庆市", "CountyName": "九龙坡区", "TownName": "走马镇", "VillageNam": " " }, "geometry": { "type": "Point", "coordinates": [ 106.288856147711158, 29.457389117281853 ] } },
{ "type": "Feature", "properties": { "NAME": "丰盛镇", "PC": "第四批", "LX": "历史文化名镇", "ProName": "重庆", "CityName": "重庆市", "CountyName": "巴南区", "TownName": "丰盛镇", "VillageNam": " " }, "geometry": { "type": "Point", "coordinates": [ 106.935326904087447, 29.527581431475731 ] } },
{ "type": "Feature", "properties": { "NAME": "安居镇", "PC": "第四批", "LX": "历史文化名镇", "ProName": "重庆", "CityName": "重庆市", "CountyName": "铜梁县", "TownName": "安居镇", "VillageNam": " " }, "geometry": { "type": "Point", "coordinates": [ 106.030989294504522, 29.989802451003698 ] } },
{ "type": "Feature", "properties": { "NAME": "松溉镇", "PC": "第四批", "LX": "历史文化名镇", "ProName": "重庆", "CityName": "重庆市", "CountyName": "永川区", "TownName": "松溉镇", "VillageNam": " " }, "geometry": { "type": "Point", "coordinates": [ 105.895762289867804, 29.053769174346456 ] } },
{ "type": "Feature", "properties": { "NAME": "恩阳镇", "PC": "第四批", "LX": "历史文化名镇", "ProName": "四川", "CityName": "巴中市", "CountyName": "巴州区", "TownName": "恩阳镇", "VillageNam": " " }, "geometry": { "type": "Point", "coordinates": [ 106.636209285447492, 31.789532554993396 ] } },
{ "type": "Feature", "properties": { "NAME": "洛带镇", "PC": "第四批", "LX": "历史文化名镇", "ProName": "四川", "CityName": "成都市", "CountyName": "龙泉驿区", "TownName": "洛带镇", "VillageNam": " " }, "geometry": { "type": "Point", "coordinates": [ 104.328870001252241, 30.639505050951513 ] } },
{ "type": "Feature", "properties": { "NAME": "新场镇", "PC": "第四批", "LX": "历史文化名镇", "ProName": "四川", "CityName": "成都市", "CountyName": "大邑县", "TownName": "新场镇", "VillageNam": " " }, "geometry": { "type": "Point", "coordinates": [ 103.434856237501577, 30.531588052580691 ] } },
{ "type": "Feature", "properties": { "NAME": "昭化镇", "PC": "第四批", "LX": "历史文化名镇", "ProName": "四川", "CityName": "广元市", "CountyName": "元坝区", "TownName": "昭化镇", "VillageNam": " " }, "geometry": { "type": "Point", "coordinates": [ 105.715406434085111, 32.332269704312758 ] } },
{ "type": "Feature", "properties": { "NAME": "福宝镇", "PC": "第四批", "LX": "历史文化名镇", "ProName": "四川", "CityName": "泸州市", "CountyName": "合江县", "TownName": "福宝镇", "VillageNam": " " }, "geometry": { "type": "Point", "coordinates": [ 106.079205654983056, 28.771031459789544 ] } },
{ "type": "Feature", "properties": { "NAME": "罗泉镇", "PC": "第四批", "LX": "历史文化名镇", "ProName": "四川", "CityName": "内江市", "CountyName": "资中县", "TownName": "罗泉镇", "VillageNam": " " }, "geometry": { "type": "Point", "coordinates": [ 104.508770644435785, 29.827669967652128 ] } },
{ "type": "Feature", "properties": { "NAME": "旧州镇", "PC": "第四批", "LX": "历史文化名镇", "ProName": "贵州", "CityName": "安顺市", "CountyName": "西秀区", "TownName": "旧州镇", "VillageNam": " " }, "geometry": { "type": "Point", "coordinates": [ 106.142476566217738, 26.250204770370775 ] } },
{ "type": "Feature", "properties": { "NAME": "天龙镇", "PC": "第四批", "LX": "历史文化名镇", "ProName": "贵州", "CityName": "安顺市", "CountyName": "平坝县", "TownName": "天龙镇", "VillageNam": " " }, "geometry": { "type": "Point", "coordinates": [ 106.166753526038931, 26.356864498378201 ] } },
{ "type": "Feature", "properties": { "NAME": "娜允镇", "PC": "第四批", "LX": "历史文化名镇", "ProName": "云南", "CityName": "普洱市", "CountyName": "孟连县", "TownName": "娜允镇", "VillageNam": " " }, "geometry": { "type": "Point", "coordinates": [ 99.576728170447538, 22.325209108930604 ] } },
{ "type": "Feature", "properties": { "NAME": "萨迦镇", "PC": "第四批", "LX": "历史文化名镇", "ProName": "西藏", "CityName": "日喀则地区", "CountyName": "日喀则市", "TownName": "萨迦镇", "VillageNam": " " }, "geometry": { "type": "Point", "coordinates": [ 88.021972645434658, 28.90304826981356 ] } },
{ "type": "Feature", "properties": { "NAME": "陈炉镇", "PC": "第四批", "LX": "历史文化名镇", "ProName": "陕西", "CityName": "铜川市", "CountyName": "印台区", "TownName": "陈炉镇", "VillageNam": " " }, "geometry": { "type": "Point", "coordinates": [ 109.154907003769694, 35.028072078986618 ] } },
{ "type": "Feature", "properties": { "NAME": "陇城镇", "PC": "第四批", "LX": "历史文化名镇", "ProName": "甘肃", "CityName": "天水市", "CountyName": "秦安县", "TownName": "陇城镇", "VillageNam": " " }, "geometry": { "type": "Point", "coordinates": [ 105.977366735482633, 34.99993919781344 ] } },
{ "type": "Feature", "properties": { "NAME": "新城镇", "PC": "第四批", "LX": "历史文化名镇", "ProName": "甘肃", "CityName": "甘南藏族自治州", "CountyName": "临潭县", "TownName": "新城镇", "VillageNam": " " }, "geometry": { "type": "Point", "coordinates": [ 103.595258119369163, 34.671086586833091 ] } },
{ "type": "Feature", "properties": { "NAME": "固新镇", "PC": "第五批", "LX": "历史文化名镇", "ProName": "河北", "CityName": "邯郸市", "CountyName": "涉县", "TownName": "固新镇", "VillageNam": " " }, "geometry": { "type": "Point", "coordinates": [ 113.749211579088538, 36.469635769495433 ] } },
{ "type": "Feature", "properties": { "NAME": "冶陶镇", "PC": "第五批", "LX": "历史文化名镇", "ProName": "河北", "CityName": "邯郸市", "CountyName": "武安市", "TownName": "冶陶镇", "VillageNam": " " }, "geometry": { "type": "Point", "coordinates": [ 113.942335288867184, 36.640413119394793 ] } },
{ "type": "Feature", "properties": { "NAME": "新平堡镇", "PC": "第五批", "LX": "历史文化名镇", "ProName": "山西", "CityName": "大同市", "CountyName": "天镇县", "TownName": "新平堡镇", "VillageNam": " " }, "geometry": { "type": "Point", "coordinates": [ 114.082975565380352, 40.657398227912495 ] } },
{ "type": "Feature", "properties": { "NAME": "润城镇", "PC": "第五批", "LX": "历史文化名镇", "ProName": "山西", "CityName": "晋城市", "CountyName": "阳城县", "TownName": "润城镇", "VillageNam": " " }, "geometry": { "type": "Point", "coordinates": [ 112.527602382015743, 35.493500813552536 ] } },
{ "type": "Feature", "properties": { "NAME": "南翔镇", "PC": "第五批", "LX": "历史文化名镇", "ProName": "上海", "CityName": "嘉定区", "CountyName": "嘉定区", "TownName": "南翔镇", "VillageNam": " " }, "geometry": { "type": "Point", "coordinates": [ 121.321205120321054, 31.296752427688308 ] } },
{ "type": "Feature", "properties": { "NAME": "高桥镇", "PC": "第五批", "LX": "历史文化名镇", "ProName": "上海", "CityName": "浦东新区", "CountyName": "浦东新区", "TownName": "高桥镇", "VillageNam": " " }, "geometry": { "type": "Point", "coordinates": [ 121.580127712129425, 31.338913360394066 ] } },
{ "type": "Feature", "properties": { "NAME": "练塘镇", "PC": "第五批", "LX": "历史文化名镇", "ProName": "上海", "CityName": "青浦区", "CountyName": "青浦区", "TownName": "练塘镇", "VillageNam": " " }, "geometry": { "type": "Point", "coordinates": [ 121.04436461068768, 31.008200422365388 ] } },
{ "type": "Feature", "properties": { "NAME": "张堰镇", "PC": "第五批", "LX": "历史文化名镇", "ProName": "上海", "CityName": "金山区", "CountyName": "金山区", "TownName": "张堰镇", "VillageNam": " " }, "geometry": { "type": "Point", "coordinates": [ 121.29767651232217, 30.801194609355605 ] } },
{ "type": "Feature", "properties": { "NAME": "东山镇", "PC": "第五批", "LX": "历史文化名镇", "ProName": "江苏", "CityName": "苏州市", "CountyName": "吴中区", "TownName": "东山镇", "VillageNam": " " }, "geometry": { "type": "Point", "coordinates": [ 120.419553567380206, 31.081636796424672 ] } },
{ "type": "Feature", "properties": { "NAME": "荡口镇", "PC": "第五批", "LX": "历史文化名镇", "ProName": "江苏", "CityName": "无锡市", "CountyName": "锡山区", "TownName": "荡口镇", "VillageNam": " " }, "geometry": { "type": "Point", "coordinates": [ 120.55315142286706, 31.525357705206122 ] } },
{ "type": "Feature", "properties": { "NAME": "沙沟镇", "PC": "第五批", "LX": "历史文化名镇", "ProName": "江苏", "CityName": "泰州市", "CountyName": "兴化市", "TownName": "沙沟镇", "VillageNam": " " }, "geometry": { "type": "Point", "coordinates": [ 119.72044932812949, 33.146107108490064 ] } },
{ "type": "Feature", "properties": { "NAME": "长泾镇", "PC": "第五批", "LX": "历史文化名镇", "ProName": "江苏", "CityName": "无锡市", "CountyName": "江阴市", "TownName": "长泾镇", "VillageNam": " " }, "geometry": { "type": "Point", "coordinates": [ 120.482068556203188, 31.747235301820879 ] } },
{ "type": "Feature", "properties": { "NAME": "凤凰镇", "PC": "第五批", "LX": "历史文化名镇", "ProName": "江苏", "CityName": "苏州市", "CountyName": "张家港市", "TownName": "凤凰镇", "VillageNam": " " }, "geometry": { "type": "Point", "coordinates": [ 120.628708972130411, 31.787755712915736 ] } },
{ "type": "Feature", "properties": { "NAME": "鹤溪镇", "PC": "第五批", "LX": "历史文化名镇", "ProName": "浙江", "CityName": "丽水市", "CountyName": "景宁畲族自治县", "TownName": "鹤溪镇", "VillageNam": " " }, "geometry": { "type": "Point", "coordinates": [ 119.63573645466596, 27.973606121480099 ] } },
{ "type": "Feature", "properties": { "NAME": "盐官镇", "PC": "第五批", "LX": "历史文化名镇", "ProName": "浙江", "CityName": "嘉兴市", "CountyName": "海宁市", "TownName": "盐官镇", "VillageNam": " " }, "geometry": { "type": "Point", "coordinates": [ 120.558501998108042, 30.450878272113197 ] } },
{ "type": "Feature", "properties": { "NAME": "霍童镇", "PC": "第五批", "LX": "历史文化名镇", "ProName": "福建", "CityName": "宁德市", "CountyName": "蕉城区", "TownName": "霍童镇", "VillageNam": " " }, "geometry": { "type": "Point", "coordinates": [ 119.423273363827533, 26.848768666211619 ] } },
{ "type": "Feature", "properties": { "NAME": "九峰镇", "PC": "第五批", "LX": "历史文化名镇", "ProName": "福建", "CityName": "漳州市", "CountyName": "平和县", "TownName": "九峰镇", "VillageNam": " " }, "geometry": { "type": "Point", "coordinates": [ 117.021239552566897, 24.250289498122722 ] } },
{ "type": "Feature", "properties": { "NAME": "五夫镇", "PC": "第五批", "LX": "历史文化名镇", "ProName": "福建", "CityName": "南平市", "CountyName": "武夷山市", "TownName": "五夫镇", "VillageNam": " " }, "geometry": { "type": "Point", "coordinates": [ 118.213151632632346, 27.610508755503098 ] } },
{ "type": "Feature", "properties": { "NAME": "元坑镇", "PC": "第五批", "LX": "历史文化名镇", "ProName": "福建", "CityName": "南平市", "CountyName": "顺昌县", "TownName": "元坑镇", "VillageNam": " " }, "geometry": { "type": "Point", "coordinates": [ 117.717012617880457, 26.75677858613907 ] } },
{ "type": "Feature", "properties": { "NAME": "富田镇", "PC": "第五批", "LX": "历史文化名镇", "ProName": "江西", "CityName": "吉安市", "CountyName": "青原区", "TownName": "富田镇", "VillageNam": " " }, "geometry": { "type": "Point", "coordinates": [ 115.248845044678163, 26.818904969318584 ] } },
{ "type": "Feature", "properties": { "NAME": "冢头镇", "PC": "第五批", "LX": "历史文化名镇", "ProName": "河南", "CityName": "平顶山市", "CountyName": "郏县", "TownName": "冢头镇", "VillageNam": " " }, "geometry": { "type": "Point", "coordinates": [ 113.35474714516711, 33.985974199833869 ] } },
{ "type": "Feature", "properties": { "NAME": "熊口镇", "PC": "第五批", "LX": "历史文化名镇", "ProName": "湖北", "CityName": "潜江市", "CountyName": "潜江市", "TownName": "熊口镇", "VillageNam": " " }, "geometry": { "type": "Point", "coordinates": [ 112.781496368637391, 30.306045223392037 ] } },
{ "type": "Feature", "properties": { "NAME": "寨市镇", "PC": "第五批", "LX": "历史文化名镇", "ProName": "湖南", "CityName": "邵阳市", "CountyName": "绥宁县", "TownName": "寨市镇", "VillageNam": " " }, "geometry": { "type": "Point", "coordinates": [ 110.046738344503737, 26.500904655454057 ] } },
{ "type": "Feature", "properties": { "NAME": "浦市镇", "PC": "第五批", "LX": "历史文化名镇", "ProName": "湖南", "CityName": "湘西土家族苗族自治州", "CountyName": "泸溪县", "TownName": "浦市镇", "VillageNam": " " }, "geometry": { "type": "Point", "coordinates": [ 110.10742081123108, 28.080132630396349 ] } },
{ "type": "Feature", "properties": { "NAME": "黄圃镇", "PC": "第五批", "LX": "历史文化名镇", "ProName": "广东", "CityName": "中山市", "CountyName": "中山市", "TownName": "黄圃镇", "VillageNam": " " }, "geometry": { "type": "Point", "coordinates": [ 113.339196592175256, 22.711076815588999 ] } },
{ "type": "Feature", "properties": { "NAME": "百侯镇", "PC": "第五批", "LX": "历史文化名镇", "ProName": "广东", "CityName": "梅州市", "CountyName": "大埔县", "TownName": "百侯镇", "VillageNam": " " }, "geometry": { "type": "Point", "coordinates": [ 116.773371476084378, 24.297391363736136 ] } },
{ "type": "Feature", "properties": { "NAME": "路孔镇", "PC": "第五批", "LX": "历史文化名镇", "ProName": "重庆", "CityName": "重庆市", "CountyName": "荣昌县", "TownName": "路孔镇", "VillageNam": " " }, "geometry": { "type": "Point", "coordinates": [ 105.649457072113023, 29.487765685311356 ] } },
{ "type": "Feature", "properties": { "NAME": "白沙镇", "PC": "第五批", "LX": "历史文化名镇", "ProName": "重庆", "CityName": "重庆市", "CountyName": "江津区", "TownName": "白沙镇", "VillageNam": " " }, "geometry": { "type": "Point", "coordinates": [ 106.125667711272371, 29.059351458304594 ] } },
{ "type": "Feature", "properties": { "NAME": "宁厂镇", "PC": "第五批", "LX": "历史文化名镇", "ProName": "重庆", "CityName": "重庆市", "CountyName": "巫溪县", "TownName": "宁厂镇", "VillageNam": " " }, "geometry": { "type": "Point", "coordinates": [ 109.641875962253451, 31.489301857453324 ] } },
{ "type": "Feature", "properties": { "NAME": "龙华镇", "PC": "第五批", "LX": "历史文化名镇", "ProName": "四川", "CityName": "宜宾市", "CountyName": "屏山县", "TownName": "龙华镇", "VillageNam": " " }, "geometry": { "type": "Point", "coordinates": [ 104.030519884083404, 28.782721879422951 ] } },
{ "type": "Feature", "properties": { "NAME": "赵化镇", "PC": "第五批", "LX": "历史文化名镇", "ProName": "四川", "CityName": "自贡市", "CountyName": "富顺县", "TownName": "赵化镇", "VillageNam": " " }, "geometry": { "type": "Point", "coordinates": [ 105.125054939580096, 29.024563582502797 ] } },
{ "type": "Feature", "properties": { "NAME": "清溪镇", "PC": "第五批", "LX": "历史文化名镇", "ProName": "四川", "CityName": "乐山市", "CountyName": "犍为县", "TownName": "清溪镇", "VillageNam": " " }, "geometry": { "type": "Point", "coordinates": [ 103.915419111585408, 29.150095740628934 ] } },
{ "type": "Feature", "properties": { "NAME": "州城镇", "PC": "第五批", "LX": "历史文化名镇", "ProName": "云南", "CityName": "大理白族自治州", "CountyName": "宾川县", "TownName": "州城镇", "VillageNam": " " }, "geometry": { "type": "Point", "coordinates": [ 100.58357304400522, 25.737952421203943 ] } },
{ "type": "Feature", "properties": { "NAME": "凤羽镇", "PC": "第五批", "LX": "历史文化名镇", "ProName": "云南", "CityName": "大理白族自治州", "CountyName": "洱源县", "TownName": "凤羽镇", "VillageNam": " " }, "geometry": { "type": "Point", "coordinates": [ 99.927640239493726, 25.991335569431222 ] } },
{ "type": "Feature", "properties": { "NAME": "新安所镇", "PC": "第五批", "LX": "历史文化名镇", "ProName": "云南", "CityName": "红河哈尼族彝族自治州", "CountyName": "蒙自县", "TownName": "新安所镇", "VillageNam": " " }, "geometry": { "type": "Point", "coordinates": [ 103.434802694913017, 23.32338521006583 ] } },
{ "type": "Feature", "properties": { "NAME": "青木川镇", "PC": "第五批", "LX": "历史文化名镇", "ProName": "陕西", "CityName": "汉中市", "CountyName": "宁强县", "TownName": "青木川镇", "VillageNam": " " }, "geometry": { "type": "Point", "coordinates": [ 105.584166679634478, 32.830401969546564 ] } },
{ "type": "Feature", "properties": { "NAME": "凤凰镇", "PC": "第五批", "LX": "历史文化名镇", "ProName": "陕西", "CityName": "商洛市", "CountyName": "柞水县", "TownName": "凤凰镇", "VillageNam": " " }, "geometry": { "type": "Point", "coordinates": [ 109.375323327751957, 33.526302312134561 ] } },
{ "type": "Feature", "properties": { "NAME": "金崖镇", "PC": "第五批", "LX": "历史文化名镇", "ProName": "甘肃", "CityName": "兰州市", "CountyName": "榆中县", "TownName": "金崖镇", "VillageNam": " " }, "geometry": { "type": "Point", "coordinates": [ 104.098765887352741, 36.019027946023357 ] } },
{ "type": "Feature", "properties": { "NAME": "伯延镇", "PC": "第六批", "LX": "历史文化名镇", "ProName": "河北", "CityName": "邯郸市", "CountyName": "武安市", "TownName": "伯延镇", "VillageNam": " " }, "geometry": { "type": "Point", "coordinates": [ 114.175072298913875, 36.616879841803609 ] } },
{ "type": "Feature", "properties": { "NAME": "代王城镇", "PC": "第六批", "LX": "历史文化名镇", "ProName": "河北", "CityName": "张家口市", "CountyName": "蔚县", "TownName": "代王城镇", "VillageNam": " " }, "geometry": { "type": "Point", "coordinates": [ 114.677923509171023, 39.892747758466001 ] } },
{ "type": "Feature", "properties": { "NAME": "周村镇", "PC": "第六批", "LX": "历史文化名镇", "ProName": "山西", "CityName": "晋城市", "CountyName": "泽州县", "TownName": "周村镇", "VillageNam": " " }, "geometry": { "type": "Point", "coordinates": [ 112.629167292838076, 35.475143441640299 ] } },
{ "type": "Feature", "properties": { "NAME": "隆盛庄镇", "PC": "第六批", "LX": "历史文化名镇", "ProName": "内蒙古", "CityName": "乌兰察布", "CountyName": "丰镇市", "TownName": "隆盛庄镇", "VillageNam": " " }, "geometry": { "type": "Point", "coordinates": [ 113.43752527735937, 40.709053525666263 ] } },
{ "type": "Feature", "properties": { "NAME": "库伦旗库伦镇", "PC": "第六批", "LX": "历史文化名镇", "ProName": "内蒙古", "CityName": "通辽市", "CountyName": "通辽市", "TownName": "库伦旗库伦镇", "VillageNam": " " }, "geometry": { "type": "Point", "coordinates": [ 121.767363621800015, 42.730449424634621 ] } },
{ "type": "Feature", "properties": { "NAME": "孤山镇", "PC": "第六批", "LX": "历史文化名镇", "ProName": "辽宁", "CityName": "丹东市", "CountyName": "东港市", "TownName": "孤山镇", "VillageNam": " " }, "geometry": { "type": "Point", "coordinates": [ 123.595226607479177, 39.89877413867228 ] } },
{ "type": "Feature", "properties": { "NAME": "前所镇", "PC": "第六批", "LX": "历史文化名镇", "ProName": "辽宁", "CityName": "葫芦岛市", "CountyName": "绥中县", "TownName": "前所镇", "VillageNam": " " }, "geometry": { "type": "Point", "coordinates": [ 119.949543090780026, 40.098563339155952 ] } },
{ "type": "Feature", "properties": { "NAME": "金泽镇", "PC": "第六批", "LX": "历史文化名镇", "ProName": "上海", "CityName": "青浦区", "CountyName": "青浦区", "TownName": "金泽镇", "VillageNam": " " }, "geometry": { "type": "Point", "coordinates": [ 120.919234488438363, 31.036509502590182 ] } },
{ "type": "Feature", "properties": { "NAME": "川沙新镇", "PC": "第六批", "LX": "历史文化名镇", "ProName": "上海", "CityName": "浦东新区", "CountyName": "浦东新区", "TownName": "川沙新镇", "VillageNam": " " }, "geometry": { "type": "Point", "coordinates": [ 121.703419946906919, 31.189428877239145 ] } },
{ "type": "Feature", "properties": { "NAME": "黎里镇", "PC": "第六批", "LX": "历史文化名镇", "ProName": "江苏", "CityName": "苏州市", "CountyName": "吴江区", "TownName": "黎里镇", "VillageNam": " " }, "geometry": { "type": "Point", "coordinates": [ 120.849187685352987, 31.038175537572187 ] } },
{ "type": "Feature", "properties": { "NAME": "震泽镇", "PC": "第六批", "LX": "历史文化名镇", "ProName": "江苏", "CityName": "苏州市", "CountyName": "吴江区", "TownName": "震泽镇", "VillageNam": " " }, "geometry": { "type": "Point", "coordinates": [ 120.509116387495169, 30.915194238572393 ] } },
{ "type": "Feature", "properties": { "NAME": "富安镇", "PC": "第六批", "LX": "历史文化名镇", "ProName": "江苏", "CityName": "东台市", "CountyName": "东台市", "TownName": "富安镇", "VillageNam": " " }, "geometry": { "type": "Point", "coordinates": [ 120.47711010664662, 32.672834510432274 ] } },
{ "type": "Feature", "properties": { "NAME": "大桥镇", "PC": "第六批", "LX": "历史文化名镇", "ProName": "江苏", "CityName": "扬州市", "CountyName": "江都区", "TownName": "大桥镇", "VillageNam": " " }, "geometry": { "type": "Point", "coordinates": [ 119.715857372676624, 32.368974899794999 ] } },
{ "type": "Feature", "properties": { "NAME": "孟河镇", "PC": "第六批", "LX": "历史文化名镇", "ProName": "江苏", "CityName": "常州市", "CountyName": "新北区", "TownName": "孟河镇", "VillageNam": " " }, "geometry": { "type": "Point", "coordinates": [ 119.846839215189163, 32.007096853879148 ] } },
{ "type": "Feature", "properties": { "NAME": "周铁镇", "PC": "第六批", "LX": "历史文化名镇", "ProName": "江苏", "CityName": "无锡市", "CountyName": "宜兴市", "TownName": "周铁镇", "VillageNam": " " }, "geometry": { "type": "Point", "coordinates": [ 120.003981776741867, 31.434630981452273 ] } },
{ "type": "Feature", "properties": { "NAME": "栟茶镇", "PC": "第六批", "LX": "历史文化名镇", "ProName": "江苏", "CityName": "南通市", "CountyName": "如东县", "TownName": "栟茶镇", "VillageNam": " " }, "geometry": { "type": "Point", "coordinates": [ 120.895041813401747, 32.5298772464674 ] } },
{ "type": "Feature", "properties": { "NAME": "古里镇", "PC": "第六批", "LX": "历史文化名镇", "ProName": "江苏", "CityName": "苏州市", "CountyName": "常熟市", "TownName": "古里镇", "VillageNam": " " }, "geometry": { "type": "Point", "coordinates": [ 120.842331561261688, 31.632673652906142 ] } },
{ "type": "Feature", "properties": { "NAME": "崇仁镇", "PC": "第六批", "LX": "历史文化名镇", "ProName": "浙江", "CityName": "绍兴市", "CountyName": "嵊州市", "TownName": "崇仁镇", "VillageNam": " " }, "geometry": { "type": "Point", "coordinates": [ 120.709076539426363, 29.602373602396316 ] } },
{ "type": "Feature", "properties": { "NAME": "芝英镇", "PC": "第六批", "LX": "历史文化名镇", "ProName": "浙江", "CityName": "金华市", "CountyName": "永康市", "TownName": "芝英镇", "VillageNam": " " }, "geometry": { "type": "Point", "coordinates": [ 120.137472235355659, 28.929873068799704 ] } },
{ "type": "Feature", "properties": { "NAME": "西屏镇", "PC": "第六批", "LX": "历史文化名镇", "ProName": "浙江", "CityName": "丽水市", "CountyName": "松阳县", "TownName": "西屏镇", "VillageNam": " " }, "geometry": { "type": "Point", "coordinates": [ 119.485810056418302, 28.448857318652372 ] } },
{ "type": "Feature", "properties": { "NAME": "东沙镇", "PC": "第六批", "LX": "历史文化名镇", "ProName": "浙江", "CityName": "舟山市", "CountyName": "岱山县", "TownName": "东沙镇", "VillageNam": " " }, "geometry": { "type": "Point", "coordinates": [ 122.161306703710252, 30.300887624071596 ] } },
{ "type": "Feature", "properties": { "NAME": "桃花潭镇", "PC": "第六批", "LX": "历史文化名镇", "ProName": "安徽", "CityName": "宣城市", "CountyName": "泾县", "TownName": "桃花潭镇", "VillageNam": " " }, "geometry": { "type": "Point", "coordinates": [ 118.150337404933737, 30.480631519890565 ] } },
{ "type": "Feature", "properties": { "NAME": "西溪南镇", "PC": "第六批", "LX": "历史文化名镇", "ProName": "安徽", "CityName": "黄山市", "CountyName": "徽州区", "TownName": "西溪南镇", "VillageNam": " " }, "geometry": { "type": "Point", "coordinates": [ 118.290016815336699, 29.831312668484458 ] } },
{ "type": "Feature", "properties": { "NAME": "大通镇", "PC": "第六批", "LX": "历史文化名镇", "ProName": "安徽", "CityName": "铜陵市", "CountyName": "郊区", "TownName": "大通镇", "VillageNam": " " }, "geometry": { "type": "Point", "coordinates": [ 117.7470422442195, 30.807743378780618 ] } },
{ "type": "Feature", "properties": { "NAME": "湖坑镇", "PC": "第六批", "LX": "历史文化名镇", "ProName": "福建", "CityName": "龙岩市", "CountyName": "永定县", "TownName": "湖坑镇", "VillageNam": " " }, "geometry": { "type": "Point", "coordinates": [ 116.951476410613552, 24.646975706805485 ] } },
{ "type": "Feature", "properties": { "NAME": "中山镇", "PC": "第六批", "LX": "历史文化名镇", "ProName": "福建", "CityName": "龙岩市", "CountyName": "武平县", "TownName": "中山镇", "VillageNam": " " }, "geometry": { "type": "Point", "coordinates": [ 116.040691418781648, 25.023503446340776 ] } },
{ "type": "Feature", "properties": { "NAME": "湖头镇", "PC": "第六批", "LX": "历史文化名镇", "ProName": "福建", "CityName": "泉州市", "CountyName": "安溪县", "TownName": "湖头镇", "VillageNam": " " }, "geometry": { "type": "Point", "coordinates": [ 118.035533277527065, 25.232961901501746 ] } },
{ "type": "Feature", "properties": { "NAME": "杉洋镇", "PC": "第六批", "LX": "历史文化名镇", "ProName": "福建", "CityName": "宁德市", "CountyName": "古田县", "TownName": "杉洋镇", "VillageNam": " " }, "geometry": { "type": "Point", "coordinates": [ 119.208665641806334, 26.665340868933082 ] } },
{ "type": "Feature", "properties": { "NAME": "双溪镇", "PC": "第六批", "LX": "历史文化名镇", "ProName": "福建", "CityName": "宁德市", "CountyName": "屏南县", "TownName": "双溪镇", "VillageNam": " " }, "geometry": { "type": "Point", "coordinates": [ 119.046331048953988, 27.017921539412342 ] } },
{ "type": "Feature", "properties": { "NAME": "石壁镇", "PC": "第六批", "LX": "历史文化名镇", "ProName": "福建", "CityName": "三明市", "CountyName": "宁化县", "TownName": "石壁镇", "VillageNam": " " }, "geometry": { "type": "Point", "coordinates": [ 116.512739341357246, 26.24423294641408 ] } },
{ "type": "Feature", "properties": { "NAME": "安源镇", "PC": "第六批", "LX": "历史文化名镇", "ProName": "江西", "CityName": "萍乡市", "CountyName": "安源区", "TownName": "安源镇", "VillageNam": " " }, "geometry": { "type": "Point", "coordinates": [ 113.886473064621185, 27.605215111070137 ] } },
{ "type": "Feature", "properties": { "NAME": "河口镇", "PC": "第六批", "LX": "历史文化名镇", "ProName": "江西", "CityName": "上饶市", "CountyName": "铅山县", "TownName": "河口镇", "VillageNam": " " }, "geometry": { "type": "Point", "coordinates": [ 117.713004387921657, 28.296198866153457 ] } },
{ "type": "Feature", "properties": { "NAME": "驿前镇", "PC": "第六批", "LX": "历史文化名镇", "ProName": "江西", "CityName": "抚州市", "CountyName": "广昌县", "TownName": "驿前镇", "VillageNam": " " }, "geometry": { "type": "Point", "coordinates": [ 116.323878827425858, 26.552444667661558 ] } },
{ "type": "Feature", "properties": { "NAME": "浒湾镇", "PC": "第六批", "LX": "历史文化名镇", "ProName": "江西", "CityName": "抚州市", "CountyName": "金溪县", "TownName": "浒湾镇", "VillageNam": " " }, "geometry": { "type": "Point", "coordinates": [ 116.554183706474134, 27.916813237305707 ] } },
{ "type": "Feature", "properties": { "NAME": "永和镇", "PC": "第六批", "LX": "历史文化名镇", "ProName": "江西", "CityName": "吉安市", "CountyName": "吉安县", "TownName": "永和镇", "VillageNam": " " }, "geometry": { "type": "Point", "coordinates": [ 115.003635304539543, 27.025917697354593 ] } },
{ "type": "Feature", "properties": { "NAME": "石塘镇", "PC": "第六批", "LX": "历史文化名镇", "ProName": "江西", "CityName": "上饶市", "CountyName": "铅山县", "TownName": "石塘镇", "VillageNam": " " }, "geometry": { "type": "Point", "coordinates": [ 117.842699635903358, 28.112757519710797 ] } },
{ "type": "Feature", "properties": { "NAME": "南阳镇", "PC": "第六批", "LX": "历史文化名镇", "ProName": "山东", "CityName": "济宁市", "CountyName": "微山县", "TownName": "南阳镇", "VillageNam": " " }, "geometry": { "type": "Point", "coordinates": [ 116.673713268202619, 35.092480196294019 ] } },
{ "type": "Feature", "properties": { "NAME": "嵖岈山镇", "PC": "第六批", "LX": "历史文化名镇", "ProName": "河南", "CityName": "驻马店市", "CountyName": "遂平县", "TownName": "嵖岈山镇", "VillageNam": " " }, "geometry": { "type": "Point", "coordinates": [ 113.747235564232241, 33.205842866579076 ] } },
{ "type": "Feature", "properties": { "NAME": "道口镇", "PC": "第六批", "LX": "历史文化名镇", "ProName": "河南", "CityName": "安阳市", "CountyName": "滑县", "TownName": "道口镇", "VillageNam": " " }, "geometry": { "type": "Point", "coordinates": [ 114.513160444109332, 35.577944347222264 ] } },
{ "type": "Feature", "properties": { "NAME": "白雀园镇", "PC": "第六批", "LX": "历史文化名镇", "ProName": "河南", "CityName": "信阳市", "CountyName": "光山县", "TownName": "白雀园镇", "VillageNam": " " }, "geometry": { "type": "Point", "coordinates": [ 115.101968677833881, 31.786116646701846 ] } },
{ "type": "Feature", "properties": { "NAME": "石牌镇", "PC": "第六批", "LX": "历史文化名镇", "ProName": "湖北", "CityName": "荆门市", "CountyName": "钟祥市", "TownName": "石牌镇", "VillageNam": " " }, "geometry": { "type": "Point", "coordinates": [ 112.505855204175319, 30.982596367338012 ] } },
{ "type": "Feature", "properties": { "NAME": "安居镇", "PC": "第六批", "LX": "历史文化名镇", "ProName": "湖北", "CityName": "随州市", "CountyName": "随县", "TownName": "安居镇", "VillageNam": " " }, "geometry": { "type": "Point", "coordinates": [ 113.205888680463602, 31.745174290611526 ] } },
{ "type": "Feature", "properties": { "NAME": "歧亭镇", "PC": "第六批", "LX": "历史文化名镇", "ProName": "湖北", "CityName": "黄冈市", "CountyName": "麻城市", "TownName": "歧亭镇", "VillageNam": " " }, "geometry": { "type": "Point", "coordinates": [ 114.754058999980231, 31.017675136911429 ] } },
{ "type": "Feature", "properties": { "NAME": "高沙镇", "PC": "第六批", "LX": "历史文化名镇", "ProName": "湖南", "CityName": "邵阳市", "CountyName": "洞口县", "TownName": "高沙镇", "VillageNam": " " }, "geometry": { "type": "Point", "coordinates": [ 110.676970012127967, 26.959651057776782 ] } },
{ "type": "Feature", "properties": { "NAME": "边城镇", "PC": "第六批", "LX": "历史文化名镇", "ProName": "湖南", "CityName": "湘西土家族苗族自治州", "CountyName": "花垣县", "TownName": "边城镇", "VillageNam": " " }, "geometry": { "type": "Point", "coordinates": [ 109.284425279877027, 28.501782213437828 ] } },
{ "type": "Feature", "properties": { "NAME": "斗门镇", "PC": "第六批", "LX": "历史文化名镇", "ProName": "广东", "CityName": "珠海市", "CountyName": "斗门区", "TownName": "斗门镇", "VillageNam": " " }, "geometry": { "type": "Point", "coordinates": [ 113.195216412337288, 22.231933310479121 ] } },
{ "type": "Feature", "properties": { "NAME": "西樵镇", "PC": "第六批", "LX": "历史文化名镇", "ProName": "广东", "CityName": "佛山市", "CountyName": "南海区", "TownName": "西樵镇", "VillageNam": " " }, "geometry": { "type": "Point", "coordinates": [ 112.97925893334552, 22.938825796539206 ] } },
{ "type": "Feature", "properties": { "NAME": "松口镇", "PC": "第六批", "LX": "历史文化名镇", "ProName": "广东", "CityName": "梅州市", "CountyName": "梅县", "TownName": "松口镇", "VillageNam": " " }, "geometry": { "type": "Point", "coordinates": [ 116.403273972444666, 24.496878687382814 ] } },
{ "type": "Feature", "properties": { "NAME": "茶阳镇", "PC": "第六批", "LX": "历史文化名镇", "ProName": "广东", "CityName": "梅州市", "CountyName": "大埔县", "TownName": "茶阳镇", "VillageNam": " " }, "geometry": { "type": "Point", "coordinates": [ 116.681268499127384, 24.51344543709066 ] } },
{ "type": "Feature", "properties": { "NAME": "三河镇", "PC": "第六批", "LX": "历史文化名镇", "ProName": "广东", "CityName": "梅州市", "CountyName": "大埔县", "TownName": "三河镇", "VillageNam": " " }, "geometry": { "type": "Point", "coordinates": [ 116.568247999844161, 24.399047797534863 ] } },
{ "type": "Feature", "properties": { "NAME": "界首镇", "PC": "第六批", "LX": "历史文化名镇", "ProName": "广西", "CityName": "桂林市", "CountyName": "兴安县", "TownName": "界首镇", "VillageNam": " " }, "geometry": { "type": "Point", "coordinates": [ 110.756638516408856, 25.72672062406 ] } },